city,lat,long,alt,avgTemp,avgPressure,avgDewPt,precipitation,maxHumidity,minHumidity,tzName,utc
"TOKYO,Japan",35.6894875,139.6917064,37.14537048,5.870967742,1016.405484,-3.193548387,1.338709677,66.96774194,24.87096774,Asia/Tokyo,9
"JAKARTA,Indonesia",-6.1744651,106.822745,14.06617355,29.16666667,1010.811333,24.2,0,94.36666667,58.33333333,Asia/Jakarta,7
"NewYork(NY),UnitedStates",40.7127837,-74.0059413,10.43549824,2.387096774,1016.064516,-4.225806452,8.275483871,80.70967742,44.32258065,America/New_York,-5
"SEOUL,SouthKorea",37.566535,126.9779692,41.98091507,-2.806451613,1025.527419,-12,0.022580645,58.77419355,23.58064516,Asia/Seoul,9
"MANILA,Philippines",14.5995124,120.9842195,8.0038414,28.32258065,1011.594839,23.38709677,0.096774194,79.48387097,50.51612903,Asia/Manila,8
"Mumbai(Bombay),India",19.0759837,72.8776559,5.45586729,23.4516129,1013.840645,13.5483871,0,77,23.41935484,Asia/Kolkata,5.5
"SaoPaulo,Brazil",-23.5505199,-46.6333094,767.487915,23.93548387,1015.271935,17.70967742,0,87.4516129,53.41935484,America/Sao_Paulo,-2
"MEXICOCITY,Mexico",19.4326077,-99.133208,2229.722168,14.09677419,1022.349032,0.419354839,0.061290323,69.35483871,22,America/Mexico_City,-6
"Delhi,India",28.7040592,77.1024902,218.0439606,15.19354839,1016.945484,9.64516129,0,97.32258065,40.4516129,Asia/Kolkata,5.5
"Osaka,Japan",34.6937378,135.5021651,3.649514675,5.935483871,1019.092258,-1.709677419,0,79.5483871,41.90322581,Asia/Tokyo,9
"CAIRO,Egypt",30.0444196,31.2357116,26.7389431,13.61290323,1021.204839,5.129032258,0.135483871,77.06451613,32.32258065,Africa/Cairo,2
"Kolkata(Calcutta),India",22.572646,88.363895,13.94972324,19.4516129,1014.798387,14.06451613,0.019354839,93.90322581,36.22580645,Asia/Kolkata,5.5
"LosAngeles(CA),UnitedStates",34.0522342,-118.2436849,86.84709167,14.38709677,1018.354839,6.806451613,2.596774194,86.61290323,42.70967742,America/Los_Angeles,-8
"Shanghai,China",31.230416,121.473701,16.13778877,4.935483871,1026.950323,-0.290322581,0,88.74193548,52.09677419,Asia/Shanghai,8
"MOSCOW,Russia",55.755826,37.6173,151.7858734,-10.67741935,1011.719677,-12.64516129,0,93.38709677,75.93548387,Europe/Moscow,3
"BEIJING(PEKING),China",39.904211,116.407395,51.83703613,-5.096774194,1030.125806,-16.87096774,0.003225806,69.06451613,12.58064516,Asia/Shanghai,8
"BUENOSAIRES,Argentina",-34.6036844,-58.3815591,29.08253288,25.19354839,1012.232903,17.25806452,0.938709677,78.06451613,39.09677419,America/Buenos_Aires,-3
"Guangzhou,China",23.12911,113.264385,18.48890877,14.16129032,1021.093226,10.29032258,7.125806452,93.51612903,58.96774194,Asia/Shanghai,8
"Shenzhen,China",22.543096,114.057865,0.523780107,15.38709677,1020.478387,11.22580645,4.703225806,90.19354839,61.19354839,Asia/Shanghai,8
"Istanbul,Turkey",41.0082376,28.9783589,39.54373932,5.870967742,1018.026452,1.64516129,2.290322581,89.48387097,49.16129032,Europe/Istanbul,2
"RiodeJaneiro,Brazil",-22.9068467,-43.1728965,32.88138962,27,1011.243226,23.03225806,3.051612903,94.67741935,57.09677419,America/Sao_Paulo,-2
"PARIS,France",48.856614,2.3522219,32.52695847,5.096774194,1013.597419,3.129032258,1.296774194,97.12903226,65.67741935,Europe/Paris,1
"Karachi,Pakistan",24.8614622,67.0099388,9.870092392,21.16666667,1015.605833,11.91666667,0,62,36,Asia/Karachi,5
"Nagoya,Japan",35.1814464,136.906398,14.6219635,5.454545455,1016.602273,-0.227272727,0,88.68181818,51.54545455,,
"Chicago(IL),UnitedStates",41.8781136,-87.6297982,181.5143738,-2.516129032,1017.451613,-7.935483871,0.532258065,76.41935484,46.4516129,America/Chicago,-6
"Lagos,Nigeria",6.5243793,3.3792057,11.57689571,28.25806452,1012.81129,20.5483871,2.64516129,91.16129032,35.19354839,Africa/Lagos,1
"LONDON,UnitedKingdom",51.5073509,-0.1277583,7.965522289,5.483870968,1007.90129,3.516129032,1.580645161,95.83870968,60.61290323,Europe/London,0
"BANGKOK,Thailand",13.7563309,100.5017651,8.033108711,27.12903226,1013.016452,21.12903226,1.661290323,93.03225806,40.25806452,Asia/Bangkok,7
"KINSHASA,DemRepofCongo",-4.4419311,15.2662931,431.3682861,27.16129032,1012.269677,22.77419355,4.632258065,94.74193548,52.64516129,Africa/Brazzaville,1
"TEHRAN,Iran",35.6891975,51.3889736,1168.312622,6.806451613,1017.988065,-4.548387097,0.806451613,67.67741935,19.29032258,Asia/Tehran,3.5
"LIMA,Peru",-12.0463731,-77.042754,138.357193,24.4516129,1012.81,19.80645161,0,83.87096774,55.90322581,America/Lima,-5
"Dongguan,China",23.020673,113.7518,6.150547028,15.38709677,1020.478387,11.22580645,4.703225806,90.19354839,61.19354839,Asia/Shanghai,8
"BOGOTA,Colombia",4.7109886,-74.072092,2554.609619,13.90322581,1027.010968,8.903225806,0.187096774,97.51612903,30.87096774,America/Bogota,-5
"Chennai(Madras),India",13.0826802,80.2707184,9.259319305,25.29032258,1013.43,19.96774194,0,88.25806452,41.19354839,Asia/Kolkata,5.5
"DHAKA,Bangladesh",23.810332,90.4125181,15.9976778,19.16666667,1015.221,12.43333333,0.1,81.2,33.8,Asia/Dhaka,6
"Essen,Germany",51.4556432,7.0115552,80.85484314,4.387096774,1011.267419,2.129032258,0.735483871,93.35483871,69.48387097,Europe/Berlin,1
"Tianjin(Tientsin),China",39.084158,117.200983,4.533307552,-4.322580645,1029.794194,-14.25806452,0,74,30.87096774,Asia/Shanghai,8
"HONGKONG,China-HongKong",22.396428,114.109497,321.11026,15.38709677,1020.478387,11.22580645,4.703225806,90.19354839,61.19354839,Asia/Shanghai,8
"Taipei,Taiwan(ChinaROC)",25.0329694,121.5654177,10.6587429,16.38709677,1021.414839,12.22580645,0,88.09677419,68.12903226,Asia/Taipei,8
"Lahore,Pakistan",31.5546061,74.3571581,215.7476654,12.5483871,1017.892581,8.870967742,0.864516129,85.77419355,51.74193548,Asia/Karachi,5
"HoChiMinhCity(Saigon),VietNam",10.8230989,106.6296638,4.68673563,29.32258065,1011.985806,20.38709677,0,79.51612903,42.32258065,Asia/Ho_Chi_Minh,7
"Bangalore,India",12.9715987,77.5945627,911.8583984,21.38709677,1017.711935,13.51612903,0,91.96774194,32.96774194,Asia/Kolkata,5.5
"Hyderabad,India",17.385044,78.486671,504.9025879,23.74193548,1016.689355,10.87096774,0.096774194,75.90322581,22.38709677,Asia/Kolkata,5.5
"Johannesburg,SouthAfrica",-26.2041028,28.0473051,1755.077881,23.22580645,1021.986774,12.32258065,0,79.32258065,33.4516129,Africa/Johannesburg,2
"BAGHDAD,Iraq",33.3128057,44.3614875,38.73895645,10.48387097,1020.914839,2.451612903,0,82.06451613,38.77419355,Asia/Baghdad,3
"Toronto,Canada",43.653226,-79.3831843,91.72267914,-2.258064516,1014.430323,-6.516129032,2.822580645,84.64516129,50.4516129,America/Montreal,-5
"SANTIAGO,Chile",-33.4488897,-70.6692655,544.2213135,21.61290323,1013.918065,10.96774194,0.161290323,77.16129032,25.83870968,America/Santiago,-3
"KUALALUMPUR,Malaysia",3.139003,101.686855,52.271698,28.87096774,1010.863548,23.77419355,7.051612903,92.64516129,47.64516129,Asia/Kuala_Lumpur,8
"SanFrancisco(CA),UnitedStates",37.7749295,-122.4194155,15.55781937,11.64516129,1018.612903,7.903225806,4.571612903,90.22580645,68.96774194,America/Los_Angeles,-8
"Philadelphia(PA),UnitedStates",39.9525839,-75.1652215,14.32654095,1.35483871,1016.903226,-7,2.15483871,73.64516129,38.03225806,America/New_York,-5
"Wuhan,China",30.593099,114.305393,15.29412556,3.870967742,1027.592258,0.096774194,0.858064516,96,54.67741935,Asia/Shanghai,8
"Miami(FL),UnitedStates",25.7616798,-80.1917902,0.536887228,19.77419355,1017.16129,14.61290323,6.202903226,88.29032258,56,America/New_York,-5
"Dallas(TX),UnitedStates",32.7766642,-96.7969879,137.5745239,8.193548387,1019.516129,0.806451613,0.647096774,82.41935484,42,America/Chicago,-6
"MADRID,Spain",40.4167754,-3.7037902,647.6728516,7.870967742,1021.996129,5.419354839,0.283870968,96.64516129,63.64516129,Europe/Madrid,1
"Ahmedabad,India",23.022505,72.5713621,50.38751221,20.70967742,1015.401935,9.935483871,0,81.19354839,20.35483871,Asia/Kolkata,5.5
"Boston(MA),United States",42.3600825,-71.0588801,10.44776249,0.387096774,1013.83871,-7.387096774,2.679032258,76.35483871,43.80645161,America/New_York,-5
"BeloHorizonte,Brazil",-19.9245018,-43.9352376,861.140625,25.06451613,1016.319677,19.41935484,0,89.16129032,57.48387097,America/Sao_Paulo,-2
"KHARTOUM,Sudan",15.5006544,32.5598994,385.3262329,21.5862069,1016.321379,-1.724137931,0,33.24137931,13.34482759,Africa/Khartoum,3
"SaintPetersburg(Leningrad),Russia",59.9342802,30.3350986,17.31131172,-12.09677419,1010.937419,-13.93548387,1.24516129,92.58064516,72.77419355,Europe/Moscow,3
"Shenyang,China",41.805699,123.431472,50.89420319,-12.32258065,1029.092903,-20.87096774,0.025806452,63.83870968,19.61290323,Asia/Shanghai,8
"Houston(TX),UnitedStates",29.7604267,-95.3698028,14.56698132,12.80645161,1018.354839,5.548387097,2.359354839,85.90322581,42.90322581,America/Chicago,-6
"Pune,India",18.5204303,73.8567437,559.9094849,20.16129032,1014.90129,10.41935484,0,89.16129032,17.74193548,Asia/Kolkata,5.5
"RIYADH,SaudiArabia",24.7135517,46.6752957,637.1498413,14.46666667,1021.188,2.166666667,0,65.16666667,20.23333333,Asia/Riyadh,3
"SINGAPORE,Singapore",1.352083,103.819836,57.8216362,29.16129032,1010.973871,23.70967742,0,90.38709677,57.25806452,Asia/Singapore,8
"WASHINGTON(DC),UnitedStates",38.9071923,-77.0368707,22.01889229,1.774193548,1017.774194,-5.451612903,2.187419355,80.09677419,44.25806452,America/New_York,-5
"Yangon,Myanmar",16.8660694,96.195132,8.995800972,24.12903226,1013.723548,16.32258065,0,91.90322581,32.70967742,Asia/Rangoon,6.5
"Milan(Milano),Italy",45.4654219,9.1859243,122.3406525,3.806451613,1016.732581,-0.580645161,0.316129032,93.29032258,52.12903226,Europe/Rome,1
"Atlanta(GA),UnitedStates",33.7489954,-84.3879824,320.0387878,5.967741935,1019.064516,-1.677419355,4.210967742,78.09677419,43.70967742,America/New_York,-5
"Chongqing,China",29.56301,106.551556,237.7870026,7.419354839,1023.376452,4,0.932258065,90.64516129,60.87096774,Asia/Shanghai,8
"Alexandria,Egypt",31.2000924,29.9187387,9.26107502,13.29032258,1019.929677,7.612903226,1.164516129,85.12903226,42.5483871,Africa/Cairo,2
"Nanjing(Nanking),China",32.060255,118.796877,12.80534744,3.032258065,1028.004516,-0.967741935,1.638709677,95.41935484,45.19354839,Asia/Shanghai,8
"Guadalajara,Mexico",20.6596988,-103.3496092,1556.489136,14.29032258,1019.498387,1.516129032,0,84.22580645,18.80645161,America/Mexico_City,-6
"Barcelona,Spain",41.3850639,2.1734035,9.895055771,11.87096774,1019.455484,5.516129032,1.209677419,84.16129032,38.61290323,Europe/Madrid,1
"Chengdu,China",30.572816,104.066801,485,7.322580645,1023.224516,2.516129032,0,92.5483871,54.41935484,Asia/Shanghai,8
"Detroit(MI),UnitedStates",42.331427,-83.0457538,182.3301697,-2.548387097,1015.612903,-7.064516129,0.778387097,84.38709677,57.09677419,America/New_York,-5
"ANKARA,Turkey",39.9333635,32.8597419,896.4544678,-2.6,1024.418667,-5.2,0.070588235,95.93333333,60.53333333,Europe/Istanbul,2
"Abidjan,CÌ«ted_Ivoire",5.3599517,-4.0082563,53.76706696,27.77419355,1011.755806,22.61290323,0.887096774,95.90322581,47.38709677,Africa/Abidjan,0
"ATHENS,Greece",37.9838096,23.7275388,71.0749054,10.67741935,1017.690323,5.451612903,0.325806452,77.96774194,45.48387097,Europe/Athens,2
"BERLIN,Germany",52.5200066,13.404954,36.13682938,-0.290322581,1012.725161,-2.225806452,0.232258065,92.96774194,71.35483871,Europe/Berlin,1
"Sydney,Australia",-33.8688197,151.2092955,24.53992844,23.09677419,1013.48,17.16129032,4.690322581,91.70967742,42.5483871,Australia/Sydney,11
"Monterrey,Mexico",25.6866142,-100.3161126,542.0845947,15.16666667,1017.965,-1.5,0,69.16666667,23.16666667,,
"Phoenix(AZ),UnitedStates",33.4483771,-112.0740373,331.5245056,13.35483871,1017.193548,0.451612903,1.073225806,69.67741935,27.70967742,America/Phoenix,-7
"Busan(Pusan),SouthKorea",35.1795543,129.0756416,20.80054665,1.741935484,1022.842903,-5.967741935,0,75.80645161,43.16129032,Asia/Seoul,9
"Recife,Brazil",-8.0475622,-34.8769643,8.110722542,27.32258065,1012.407419,23.38709677,1.422580645,89.06451613,57.64516129,America/Fortaleza,-3
"Bandung,Indonesia",-6.9174639,107.6191228,699.3822632,24.83333333,1015.5625,21.33333333,1.25,91.91666667,53,Asia/Jakarta,7
"PortoAlegre,Brazil",-30.0346471,-51.2176584,18.82139015,25.77419355,1011.494194,19.5483871,1.267741935,91.77419355,39.74193548,America/Sao_Paulo,-2
"Melbourne,Australia",-37.8136276,144.9630576,26.86931038,20.61290323,1013.911935,12,0.961290323,89.32258065,31.09677419,Australia/Melbourne,11
"LUANDA,Angola",-8.8399876,13.2894368,80.14511108,28.70967742,1010.567097,23.67741935,0.096774194,88.70967742,55.93548387,Africa/Luanda,1
"Hangzhou(Hangchow),China",30.274085,120.15507,19.33370972,5.225806452,1027.174516,1.64516129,2.75483871,94.09677419,55.93548387,Asia/Shanghai,8
"ALGIERS,Algeria",36.753768,3.0587561,39.30977631,12.77419355,1023.211613,9,0.870967742,96.87096774,46.41935484,Africa/Algiers,1
"HÌÊNoi(HANOI),VietNam",21.0277644,105.8341598,15.71850395,17.12903226,1018.81,14.29032258,0,96.48387097,71.32258065,Asia/Ho_Chi_Minh,7
"MontrÌ©al,Canada",45.5016889,-73.567256,35.90165329,-5.806451613,1013.562258,-8.677419355,0.974193548,90.74193548,60.03225806,America/Montreal,-5
"Xi_an(Sian),China",34.341575,108.93977,384.9163513,-1.387096774,1027.359355,-8.806451613,0,84.48387097,37.29032258,Asia/Shanghai,8
"PYONGYANG,NorthKorea",39.0392193,125.7625241,5.063846588,-5.580645161,1026.433548,-11.19354839,0.15483871,80,38.67741935,Asia/Pyongyang,8.5
"Qingdao(Tsingtao),China",36.067108,120.382609,6.126443386,-1.709677419,1028.642258,-10.5483871,0,74.35483871,25.77419355,Asia/Shanghai,8
"Surat,India",21.1702401,72.8310607,13.92158127,23.09677419,1015.264516,11.90322581,0,71.83870968,19.5483871,Asia/Kolkata,5.5
"Fortaleza,Brazil",-3.7318616,-38.5266704,28.93952751,27.12903226,1011.886452,23.51612903,3.151612903,91.67741935,57.77419355,America/Fortaleza,-3
"MedellÌ_n,Colombia",6.244203,-75.5812119,1479.809937,23.67741935,1019.892903,14.80645161,0,84.48387097,29.19354839,America/Bogota,-5
"Durban,SouthAfrica",-29.8586804,31.0218404,5.807462215,25.25806452,1015.316774,20.96774194,3.219354839,82.41935484,58.12903226,Africa/Johannesburg,2
"Kanpur,India",26.449923,80.3318736,132.8869629,,,,,,,,
"ADDISABABA,Ethiopia",8.9806034,38.7577605,2293.990967,17.51612903,1024.509355,9.806451613,0,80.06451613,37.90322581,Africa/Addis_Ababa,3
"NAIROBI,Kenya",-1.2920659,36.8219462,1663.247559,21.32258065,1020.532258,15.25806452,0,92.22580645,48.87096774,Africa/Nairobi,3
"Jeddah(Jiddah),SaudiArabia",21.2854067,39.2375507,15.91155529,23.80645161,1015.042258,13.29032258,0,66.64516129,29.48387097,Asia/Riyadh,3
"Naples(Napoli),Italy",40.8517746,14.2681244,12.72563839,10.61290323,1017.877097,6,0,87.74193548,47.70967742,Europe/Rome,1
"KABUL,Afghanistan",34.5553494,69.207486,1791.743408,4.838709677,1021.723871,-4.483870968,0,86.06451613,34.83870968,Asia/Kabul,4.5
"Salvador,Brazil",-12.9730401,-38.502304,65.53079987,27.19354839,1012.668065,22.70967742,2.038709677,88.61290323,57.64516129,America/Bahia,-3
"Harbin(Haerbin),China",45.803775,126.534967,118.0095749,-20.41935484,1025.027097,-23.80645161,0.04516129,83.77419355,45.29032258,Asia/Shanghai,8
"Kano,Nigeria",12.0021794,8.5919561,469.3789368,20,1018.827273,-2.454545455,0,37.90909091,11.90909091,Africa/Lagos,1
"Casablanca(Dar-el-Beida),Morocco",33.5731104,-7.5898434,46.15754318,15.90322581,1023.708387,12.06451613,0.767741935,93.03225806,51,Africa/Casablanca,0
"CAPETOWN,SouthAfrica",-33.9248685,18.4240553,13.87177372,23.70967742,1013.329355,15.93548387,0.296774194,80.70967742,36.51612903,Africa/Johannesburg,2
"Curitiba,Brazil",-25.4289541,-49.267137,910.0089111,21.5483871,1016.471613,17,0,95.74193548,58.5483871,America/Sao_Paulo,-2
"Surabaya,Indonesia",-7.2574719,112.7520883,7.339914799,29.16129032,1010.832903,24.61290323,4.870967742,86.67741935,54.09677419,Asia/Jakarta,7
"SanDiego(CA),UnitedStates",32.715738,-117.1610838,15.22497749,14.96774194,1019.354839,8.032258065,3.908387097,79.93548387,49.12903226,America/Los_Angeles,-8
"Seattle(WA),UnitedStates",47.6062095,-122.3320708,56.08481598,6.258064516,1014.387097,4.032258065,5.498064516,97.12903226,67.61290323,America/Los_Angeles,-8
"ROME,Italy",41.9027835,12.4963655,52.71562576,9.35483871,1017.574194,5.096774194,0,91.90322581,58.67741935,Europe/Rome,1
"DaresSalaam,Tanzania",-6.792354,39.2083284,60.67264175,29.35483871,1011.073548,24.58064516,4.516129032,90.09677419,52.96774194,Africa/Dar_es_Salaam,3
"Taichung,China",24.1477358,120.6736482,90.34411621,15.19354839,1018.917097,12.48387097,0,97.19354839,74.12903226,Asia/Taipei,8
"Jaipur,India",26.9124336,75.7872709,432.9278259,17.25806452,1017.284839,7.096774194,0,81.96774194,21.29032258,Asia/Kolkata,5.5
"CARACAS,Venezuela",10.4805937,-66.9036063,883.9678345,25.10714286,1015.272143,20.53571429,0.107142857,87.42857143,61.78571429,America/Caracas,-4.5
"DAKAR,Senegal",14.7645042,-17.3660286,10.265728,24.93548387,1013.440323,16.67741935,0,86.48387097,32.22580645,Africa/Dakar,0
"Kaohsiung,China",22.5530391,120.348614,5.290220261,19.58064516,1018.717097,16.19354839,0,96,64.67741935,Asia/Taipei,8
"Minneapolis(MN),UnitedStates",44.977753,-93.2650108,254.7844543,-7.838709677,1017.290323,-11.41935484,0.253548387,85.93548387,65.06451613,America/Chicago,-6
"Lucknow,India",26.8466937,80.946166,117.335022,14.64516129,1016.043871,10.06451613,0.419354839,98.96774194,43.29032258,Asia/Kolkata,5.5
"AMMAN,Jordan",31.9453666,35.9283716,769.4862061,7.677419355,1019.688387,2.516129032,2.193548387,89.61290323,46.90322581,Asia/Amman,2
"TelAviv-Yafo,Israel",32.0852999,34.7817676,20.56904602,13.35483871,1018.95871,7.709677419,0,83.80645161,53.09677419,Asia/Jerusalem,2
"Guayaquil,Ecuador",-2.1709979,-79.9223592,35.18864059,27.03225806,1010.096452,22.77419355,2.65483871,90.70967742,55.64516129,America/Guayaquil,-5
"KYIV(KIEV),Ukraine",50.4501,30.5234,156.8702545,-5.903225806,1014.705806,-7.903225806,0.74516129,94,68.48387097,Europe/Kiev,2
"Faisalabad(Lyallpur),Pakistan",31.4187142,73.0791073,191.6847382,,,,0,,,,
"Mashhad,Iran",36.2604623,59.6167549,981.9093628,6.612903226,1018.512581,-2.516129032,0.487096774,83.22580645,29,Asia/Tehran,3.5
"Izmir,Turkey",38.423734,27.142826,11.28206921,6.612903226,1017.719355,1.967741935,3.516129032,92.74193548,42.25806452,Europe/Istanbul,2
"Rawalpindi,Pakistan",33.598394,73.0441352,503.9517822,11.29032258,1018.416452,6.903225806,1.838709677,93.51612903,46.19354839,Asia/Karachi,5
"TASHKENT,Uzbekistan",41.2994958,69.2400734,444.3361816,6.677419355,1021.099355,-0.032258065,2.138709677,90.51612903,35.87096774,Asia/Tashkent,5
"Katowice,Poland",50.2648919,19.0237815,265.4990234,-2.419354839,1014.325806,-4.258064516,0.761290323,95.77419355,60.09677419,Europe/Warsaw,1
"Changchun,China",43.817072,125.323544,218.5006714,-16.74193548,1026.486129,-23.03225806,0.009677419,71.38709677,32.09677419,Asia/Shanghai,8
"Campinas,Brazil",-22.9098833,-47.0625812,702.5106201,24.4516129,1014.283871,18.61290323,0,92.03225806,50.06451613,America/Sao_Paulo,-2
"Daegu(Taegu),SouthKorea",35.8714354,128.601445,47.91284943,0.225806452,1023.538065,-8.35483871,0.387096774,66.5483871,28.67741935,Asia/Seoul,9
"Changsha,China",28.228209,112.938814,62.53693771,6.032258065,1026.133871,2.193548387,0,91.74193548,66.09677419,Asia/Shanghai,8
"Nagpur,India",21.1458004,79.0881546,310.3305664,20.80645161,1016.352258,9.935483871,0,82.38709677,22.83870968,Asia/Kolkata,5.5
"SanJuan,Philippines",14.5994146,121.0368893,25.80759811,28.32258065,1011.594839,23.38709677,0.096774194,79.48387097,50.51612903,Asia/Manila,8
"Aleppo,Syria",36.2021047,37.1342603,382.8508301,,,,,,,,
"LISBON,Portugal",38.7222524,-9.1393366,56.44046783,12.93548387,1022.746129,10.38709677,0,95.80645161,69.25806452,Europe/Lisbon,0
"FrankfurtamMain,Germany",50.1109221,8.6821267,98.05740356,3.096774194,1013.677097,1.032258065,0.890322581,96.96774194,71.19354839,Europe/Berlin,1
"Nanchang,China",28.682892,115.858198,15.87480545,6.677419355,1026.724516,2.161290323,2.470967742,81.58064516,56.32258065,Asia/Shanghai,8
"Birmingham,UnitedKingdom",52.486243,-1.890401,130.4303284,5.387096774,1005.643548,4.290322581,0,99.80645161,80.35483871,Europe/London,0
"Tampa(FL),UnitedStates",27.950575,-82.4571776,6.090157509,16.51612903,1018.193548,11.35483871,5.571935484,92.35483871,52.03225806,America/New_York,-5
"Medan,Indonesia",3.5951956,98.6722227,23.10549545,27.58064516,1010.866452,24.90322581,0.070967742,99.67741935,62.38709677,Asia/Jakarta,7
"Dalian,China",38.914003,121.614682,29.02305794,-5.903225806,1028.210645,-13.38709677,0.041935484,74.19354839,25.4516129,Asia/Shanghai,8
"TUNIS,Tunisia",36.8064948,10.1815316,7.069890499,12.70967742,1021.189032,8.129032258,1.122580645,92.4516129,46.51612903,Africa/Tunis,1
"Shijiazhuang,China",38.042307,114.51486,84.02124023,-3.64516129,1029.059032,-12.96774194,0,79.09677419,31.74193548,Asia/Shanghai,8
"Manchester,UnitedKingdom",53.4807593,-2.2426305,58.93083191,5.580645161,1004.589677,3.483870968,0,95.4516129,76.22580645,Europe/London,0
"PORT-AU-PRINCE,Haiti",18.594395,-72.3074326,15.10287189,27.46666667,1014.286452,19.6,0,80,44.13333333,America/Port-au-Prince,-5
"DAMASCUS,Syria",33.5138073,36.2765279,692.5720215,6.64516129,1019.413226,0.096774194,0.341935484,87.64516129,35.77419355,Asia/Damascus,2
"Ji_nan,China",36.651216,117.12,147.5986938,-1,1029.696452,-11.06451613,0.193548387,56,25.25806452,Asia/Shanghai,8
"Fukuoka,Japan",33.5903547,130.4017155,8.10127449,6.35483871,1021.258387,0.967741935,0,86.19354839,51.09677419,Asia/Tokyo,9
"SANTODOMINGO,DominicanRepublic",18.4860575,-69.9312117,51.25374603,25.5,1016.09,21,0,93.7,56.73333333,America/Santo_Domingo,-4
"HAVANA,Cuba",23.1135925,-82.3665956,7.391153812,21.48387097,1016.885161,16.58064516,0,88.67741935,53.09677419,America/Havana,-5
"Cali,Colombia",3.4516467,-76.5319854,1011.500244,25.74193548,1014.38,19.22580645,0.922580645,95.87096774,38,America/Bogota,-5
"Denver(CO),UnitedStates",39.7392358,-104.990251,1596.672974,0.451612903,1015.677419,-8.516129032,0.196451613,80.16129032,34.87096774,America/Denver,-7
"St.Louis(MO),UnitedStates",38.6270025,-90.1994042,140.9563293,0.677419355,1019.322581,-5.290322581,0.663870968,80,49.09677419,America/Chicago,-6
"Colombo,Brazil",-25.2929784,-49.2266344,1003.003601,21.5483871,1016.471613,17,0,95.74193548,58.5483871,America/Sao_Paulo,-2
"Dubai,UnitedArabEmirates",25.2048493,55.2707828,1.993821263,20.5483871,1018.206774,12.12903226,0.129032258,75.96774194,35.29032258,Asia/Dubai,4
"Baltimore(MD),UnitedStates",39.2903848,-76.6121893,10.96754742,1.387096774,1017.516129,-6.290322581,2.646129032,75.96774194,41.67741935,America/New_York,-5
"Sapporo,Japan",43.0620958,141.3543763,32.34929657,-3.888888889,1013.423889,-7.333333333,0,88.33333333,60.94444444,,
"Rotterdam,Netherlands",51.9244201,4.4777325,7.24186039,5.032258065,1009.437742,3.612903226,2.590322581,97.06451613,68.03225806,Europe/Amsterdam,1
"Vancouver,Canada",49.2827291,-123.1207375,32.38006592,5.633333333,,4.7,4.746666667,94.53333333,81.36666667,America/Vancouver,-8
"Preston,UnitedKingdom",53.763201,-2.70309,34.95156097,5.677419355,1003.495,4.161290323,2.2,96.16129032,68.29032258,Europe/London,0
"Patna,India",25.5940947,85.1375645,54.95563126,16.16129032,1015.672258,11.87096774,0.096774194,96.16129032,39.83870968,Asia/Kolkata,5.5
"SANA_A,Yemen",15.3694451,44.1910066,2256.558838,,,,,,,,
"WARSAW,Poland",52.2296756,21.0122287,112.8550797,-3.419354839,1014.270323,-5.161290323,0.387096774,94.06451613,66.48387097,Europe/Warsaw,1
"Bonn,Germany",50.73743,7.0982068,59.02432632,3.806451613,1012.182581,2.064516129,0.693548387,97.19354839,69.41935484,Europe/Berlin,1
"ACCRA,Ghana",5.6037168,-0.1869644,60.56504059,29,1011.745714,20.57142857,0,87.46428571,36.96428571,,
"BUCHAREST,Romania",44.4267674,26.1025384,71.60268402,-3.483870968,1017.522581,-4.838709677,1.025806452,98.12903226,61.38709677,Europe/Bucharest,2
"Yokohama,Japan",35.4437078,139.6380256,12.89871979,6.774193548,1015.300323,-1.580645161,0,76.12903226,40.12903226,Asia/Tokyo,9
"Kunming,China",24.880095,102.832892,1930.05603,7.774193548,1020.862903,0.612903226,0.629032258,94.09677419,28.96774194,Asia/Shanghai,8
"Guiyang,China",26.647661,106.630154,1276.710449,5.032258065,1021.516452,2.677419355,0.816129032,97.19354839,69.32258065,Asia/Shanghai,8
"Zibo,China",36.813487,118.054927,38.47369003,-3.483870968,1029.105806,-10.5483871,0,84.77419355,36.87096774,Asia/Shanghai,8
"Incheon,SouthKorea",37.4562557,126.7052062,44.57880783,-2,1025.45871,-10.32258065,0.083870968,77.29032258,37.03225806,Asia/Seoul,9
"Zhengzhou,China",34.746611,113.625328,109.740097,0.483870968,1028.62129,-9.419354839,0.103225806,75.90322581,22.87096774,Asia/Shanghai,8
"Taiyuan,China",37.87059,112.548879,788.0523071,-5.322580645,1025.918387,-18.61290323,0.087096774,62.93548387,15.5483871,Asia/Shanghai,8
"Chaoyang(Guangdong),China",23.264936,116.601515,17.51448441,14.74193548,1021.464839,10.70967742,4.883870968,91.83870968,60.22580645,Asia/Shanghai,8
"BRASILIA,Brazil",-15.7941569,-47.8825289,1092.490112,22.38709677,1016.79871,18.80645161,6.580645161,97.5483871,54.77419355,America/Sao_Paulo,-2
"Zhongshan,China",22.516999,113.392725,13.32476616,15.03225806,1019.934839,12.67741935,3.6,93.5483871,68.70967742,Asia/Macau,8
"WestMidlands,UnitedKingdom",52.4750743,-1.829833,114.0979538,5.387096774,1005.643548,4.290322581,0,99.80645161,80.35483871,Europe/London,0
"Giza,Egypt",30.0130557,31.2088526,23.91841507,13.61290323,1021.204839,5.129032258,0.135483871,77.06451613,32.32258065,Africa/Cairo,2
"QuezonCity,Philippines",14.6760413,121.0437003,48.17877197,28.32258065,1011.594839,23.38709677,0.096774194,79.48387097,50.51612903,Asia/Manila,8
"Nanhai,China",23.028956,113.143441,8.122255325,14.16129032,1021.093226,10.29032258,7.125806452,93.51612903,58.96774194,Asia/Shanghai,8
"Fuzhou(Fujian),China",26.074508,119.296494,9.736247063,11.38709677,1023.669355,7.741935484,3.577419355,92.67741935,63.35483871,Asia/Shanghai,8
"Lanzhou,China",36.061089,103.834304,1524.8479,-8.741935484,1021.187742,-16.4516129,0,78.93548387,38.4516129,Asia/Shanghai,8
"Xiamen,China",24.479834,118.089425,2,13.74193548,1022.11129,10.03225806,3.75483871,92.4516129,63.96774194,Asia/Shanghai,8
"Chittagong,Bangladesh",22.3475365,91.8123324,39.66540527,19.83870968,1014.474839,14.67741935,0.064516129,92.87096774,38.19354839,Asia/Dhaka,6
"Zaozhuang,China",34.810488,117.323725,89.32292938,-0.774193548,1029.414839,-8.677419355,0.161290323,69.22580645,25.77419355,Asia/Shanghai,8
"Jilin,China",43.89654,125.325862,216.1199493,-16.74193548,1026.486129,-23.03225806,0.009677419,71.38709677,32.09677419,Asia/Shanghai,8
"Linyi,China",35.104674,118.356414,67.98131561,,,,,,,,
"Wenzhou,China",27.993828,120.699362,8.786692619,,,,,,,,
"STOCKHOLM,Sweden",59.3293235,18.0685808,19.24552345,-5.258064516,1009.934839,-7.032258065,0,93.12903226,67.93548387,Europe/Stockholm,1
"PuebladeZaragoza,Mexico",19.0412967,-98.2061996,2147.027832,13.51612903,1022.251613,2.451612903,0.264516129,82.83870968,18.83870968,America/Mexico_City,-6
"Puning,China",23.2974,116.165723,15.87965679,14.74193548,1021.464839,10.70967742,4.883870968,91.83870968,60.22580645,Asia/Shanghai,8
"BAKU,Azerbaijan",40.4092617,49.8670924,23.36250496,4.677419355,1017.747419,2.258064516,1,94.41935484,58.87096774,Asia/Baku,4
"Ibadan,Nigeria",7.3775355,3.9470396,225.1643829,27.9047619,1011.762381,15,0.714285714,62.61904762,26.76190476,Africa/Lagos,1
"Brisbane,Australia",-27.4697707,153.0251235,26.5358181,24.06451613,1012.935484,18.61290323,1.090322581,89.03225806,47,Australia/Brisbane,10
"MINSK,Belarus",53.9045398,27.5615244,206.7012024,-8.225806452,1012.851935,-9.451612903,1.012903226,96.38709677,69.09677419,Europe/Minsk,3
"Sikasso,Mali",11.3223834,-5.6983979,413.7696838,25.06451613,1012.100645,7.032258065,3.467741935,46.19354839,12.32258065,Africa/Bamako,0
"Nanchong,China",30.837793,106.110698,338.4312744,6.387096774,1024.953548,2.677419355,0.596774194,83.35483871,59.61290323,Asia/Shanghai,8
"Nanning,China",22.817002,108.366543,79.5065918,13.03225806,1020.565806,10.5483871,2.293548387,97.03225806,66.70967742,Asia/Shanghai,8
"Urumqi,China",43.825592,87.616848,835.9277344,-12.61290323,1030.241613,-14.70967742,0,91.61290323,79.38709677,Asia/Shanghai,8
"Yantai,China",37.463822,121.447935,4.374847889,,,,,,,,
"Fuyang(Zhejiang),China",30.048692,119.960076,20.91484833,5.225806452,1027.174516,1.64516129,2.75483871,94.09677419,55.93548387,Asia/Shanghai,8
"Tangshan,China",39.630867,118.180194,38.76417542,-4.322580645,1029.794194,-14.25806452,0,74,30.87096774,Asia/Shanghai,8
"Maracaibo,Venezuela",10.6544509,-71.7147951,52.83932495,28.85714286,1012.738929,22.92857143,0,85.71428571,52.67857143,America/Caracas,-4.5
"Hamburg,Germany",53.5510846,9.9936818,5.675632954,0.741935484,1010.610323,-0.483870968,0.429032258,97.35483871,75.41935484,Europe/Berlin,1
"BUDAPEST,Hungary",47.497912,19.040235,108.3457947,-1.612903226,1016.81129,-3.677419355,0,96,71.19354839,Europe/Budapest,1
"Shunde,China",22.80524,113.293359,1.634854198,15.38709677,1020.478387,11.22580645,4.703225806,90.19354839,61.19354839,Asia/Shanghai,8
"Manaus,Brazil",-3.1190275,-60.0217314,45.39500427,28.41935484,1009.97129,22.83870968,0.716129032,86.77419355,51.41935484,America/Manaus,-4
"Xuzhou,China",34.205768,117.284124,36.23826218,0.967741935,1029.14,-6.032258065,0.25483871,74.16129032,34.96774194,Asia/Shanghai,8
"SÌ©gou,Mali",13.4316597,-6.2482149,288.2449646,25.48387097,,6.580645161,0.129032258,40.09677419,11.38709677,Africa/Bamako,0
"Baotou,China",40.657378,109.840349,1065.00415,,,,,,,,
"Hefei,China",31.820592,117.227219,37.5116539,3.032258065,1027.966774,-1.612903226,1.241935484,92.4516129,46.25806452,Asia/Shanghai,8
"VIENNA,Austria",48.2081743,16.3738189,178.3267212,0.032258065,1016.292258,-2.612903226,1.164516129,95.51612903,60.06451613,Europe/Vienna,1
"Indore,India",22.7195687,75.8577258,549.1705933,19.19354839,1015.804194,9.516129032,0.012903226,76.32258065,22.61290323,Asia/Kolkata,5.5
"ASUNCION,Paraguay",-25.2637399,-57.575926,97.95295715,28.74193548,1008.337742,22.74193548,3.612903226,92.19354839,43.51612903,America/Asuncion,-3
"Tianmen,China",29.046809,110.482084,775.2158203,,,,,,,,
"BELGRADE,Serbia",44.786568,20.4489216,170.2846832,1.032258065,1017.445806,-1.451612903,0.761290323,96.12903226,58.70967742,Europe/Belgrade,1
"Suzhou(Anhui),China",33.646357,116.964358,27.82317734,0.967741935,1029.14,-6.032258065,0.25483871,74.16129032,34.96774194,Asia/Shanghai,8
"Suizhou,China",31.690216,113.382458,70.59365082,,,,0,,,Asia/Shanghai,8
"Nanyang,China",32.990664,112.528308,129.7734833,0.838709677,1029.399355,-5.677419355,0.022580645,74.09677419,40.35483871,Asia/Shanghai,8
"Nakuru,Kenya",-0.3030988,36.080026,1806.106445,19.29032258,,12.61290323,1.822580645,91.22580645,33.41935484,Africa/Nairobi,3
"Koulikoro,Mali",13.8018074,-7.4381355,347.1836548,25.48387097,,6.580645161,0.129032258,40.09677419,11.38709677,Africa/Bamako,0
"Ningbo,China",29.868336,121.54399,10.06094742,6,1026.552581,2.35483871,0,94.93548387,61.22580645,Asia/Shanghai,8
"Liuan,China",31.7337,116.521855,74.84971619,3.032258065,1027.966774,-1.612903226,1.241935484,92.4516129,46.25806452,Asia/Shanghai,8
"Anshan,China",41.108647,122.994329,48.66790009,-12.32258065,1029.092903,-20.87096774,0.025806452,63.83870968,19.61290323,Asia/Shanghai,8
"Tengzhou,China",35.084021,117.164388,69.8088913,-1.161290323,1029.343226,-8.161290323,0.129032258,76.61290323,31.16129032,Asia/Shanghai,8
"Qiqihaer,China",47.354348,123.918186,148.9243622,-18.83870968,1026.940645,-24.70967742,0.016129032,63.38709677,34.93548387,Asia/Shanghai,8
"Pizhou,China",34.338888,118.012531,22.12930679,,,,,,,,
"Taian,China",36.200252,117.087614,167.4445496,-1,1029.696452,-11.06451613,0.193548387,56,25.25806452,Asia/Shanghai,8
"Datong,China",40.076763,113.300129,1043.768066,,,,,,,,
"Kobe,Japan",34.690083,135.1955112,5.745821476,7.064516129,1019.145806,1.419354839,0,78.74193548,55.90322581,Asia/Tokyo,9
"Hama,Syria",35.1408881,36.7551993,287.3474426,11.09677419,1018.55,4.870967742,1.819354839,89.61290323,40.5483871,Asia/Damascus,2
"Esfahan,Iran",32.6546275,51.6679826,1579.794678,3.032258065,1019.042903,-9.741935484,0.032258065,69.93548387,13.51612903,Asia/Tehran,3.5
"TRIPOLI,Libya",32.8872094,13.1913383,16.80915642,15.03225806,1023.401935,5.483870968,0,75.38709677,38.38709677,Africa/Tripoli,2
"WestYorkshire,UnitedKingdom",53.8108176,-1.76261,97.22379303,3.935483871,1003.530645,3.225806452,1.812903226,99.70967742,74.61290323,Europe/London,0
"Vadodara,India",22.3071588,73.1812187,36.88405991,21.80645161,1015.025806,12.35483871,0,72.22580645,22.06451613,Asia/Kolkata,5.5
"Taizhou(Zhejiang),China",28.65638,121.42076,14.27960491,,,,,,,,
"Luoyang,China",34.619683,112.45404,146.8682098,,,,,,,,
"QUITO,Ecuador",-0.1806532,-78.4678382,2930.111572,,,,,,,,
"Jinjiang,China",24.781681,118.552365,25.17221451,13.74193548,1022.11129,10.03225806,3.75483871,92.4516129,63.96774194,Asia/Shanghai,8
"Mopti,Mali",14.4874284,-4.1974627,267.1525879,24.48387097,1015.058387,4.612903226,0.009677419,55.03225806,7.322580645,Africa/Bamako,0
"Perth,Australia",-31.9505269,115.8604572,16.38112831,25.09677419,1011.495484,12.93548387,0.393548387,76.22580645,21.83870968,Australia/Perth,8
"Daejeon(Taejon),SouthKorea",36.3504119,127.3845475,72.21993256,-0.709677419,1025.745806,-6.612903226,0.248387097,78.29032258,36.48387097,Asia/Seoul,9
"Kyoto,Japan",35.0116363,135.7680294,44.72346497,5.935483871,1019.092258,-1.709677419,0,79.5483871,41.90322581,Asia/Tokyo,9
"Xiantao,China",30.360882,113.423482,29.7181263,3.870967742,1027.592258,0.096774194,0.858064516,96,54.67741935,Asia/Shanghai,8
"Tangerang,Indonesia",-6.2023936,106.6527099,22.04970932,28,1011.583548,24.38709677,4.812903226,96.70967742,59.51612903,Asia/Jakarta,7
"Bhopal,India",23.2599333,77.412615,495.2271423,19.03225806,1016.362903,9.096774194,0.677419355,78.70967742,24,Asia/Kolkata,5.5
"Coimbatore,India",11.0168445,76.9558321,432.0474548,25.03225806,1015.542258,16.80645161,0,87.74193548,31.25806452,Asia/Kolkata,5.5
"Kharkiv,Ukraine",49.9935,36.230383,121.9011841,-7.548387097,1014.767742,-9.322580645,1.264516129,93.22580645,69.96774194,Europe/Kiev,2
"Gwangju(Kwangchu),SouthKorea",35.1595454,126.8526012,20.71023178,1.548387097,1025.105484,-2.225806452,0,94.96774194,58.83870968,Asia/Seoul,9
"Xinghua,China",32.910459,119.852541,1.329800487,,,,,,,,
"HARARE,Zimbabwe",-17.8251657,31.03351,1488.357422,21.96774194,1020.644839,15.93548387,0,96.5483871,38.22580645,Africa/Harare,2
"Fushun,China",41.880872,123.957208,83.44060516,-12.32258065,1029.092903,-20.87096774,0.025806452,63.83870968,19.61290323,Asia/Shanghai,8
"Shangqiu,China",34.414961,115.656339,50.14402008,,,,0,,,Asia/Shanghai,8
"BelÌ©m,Brazil",-1.4557794,-48.4901968,20,27.22580645,1011.194194,23.51612903,4.374193548,92.74193548,62.51612903,America/Fortaleza,-3
"Wuxi,China",31.49117,120.31191,5.258908272,,,,,,,,
"Hechuan,China",29.972084,106.27613,219.1695099,7.419354839,1023.376452,4,0.932258065,90.64516129,60.87096774,Asia/Shanghai,8
"Wujin,China",31.701188,119.942437,4.997581005,,,,,,,,
"Guigang,China",23.111531,109.598927,44,13.16129032,1021.573871,10.09677419,3.5,89.16129032,66.58064516,Asia/Shanghai,8
"Jianyang(Sichuan),China",30.410755,104.546774,392.3518066,7.322580645,1023.224516,2.516129032,0,92.5483871,54.41935484,Asia/Shanghai,8
"Huhehaote,China",40.842585,111.749181,1071.850464,-14.87096774,1028.451935,-21.77419355,0.009677419,73.93548387,23.90322581,Asia/Shanghai,8
"SantaCruz,Bolivia",-17.8145819,-63.1560853,419.1699219,27.80645161,1008.724194,22.22580645,1.577419355,90.77419355,47.74193548,America/La_Paz,-4
"Semarang,Indonesia",-7.0051453,110.4381254,11.81938267,28.61290323,1010.849355,24.12903226,7.35483871,86.4516129,55.16129032,Asia/Jakarta,7
"Ludhiana,India",30.900965,75.8572758,251.869278,,1017.5,9.5,0,77,77,Asia/Kolkata,5.5
"Novosibirsk,Russia",55.0083526,82.9357327,110.2461777,-20.83870968,1036.739032,-24.06451613,0,84.48387097,66.83870968,Asia/Novosibirsk,6
"Neijiang,China",29.580229,105.058433,334.9057617,,,,0,,,Asia/Shanghai,8
"MAPUTO,Mozambique",-25.891968,32.6051351,52.0885582,26.93548387,1015.043548,20.38709677,0.216129032,86.41935484,41.64516129,Africa/Maputo,2
"Nan_an,China",24.960385,118.386279,19.23209572,13.74193548,1022.11129,10.03225806,3.75483871,92.4516129,63.96774194,Asia/Shanghai,8
"Douala,Cameroon",4.0510564,9.7678687,41.00547028,28.83870968,1010.649677,24.77419355,0,98.61290323,48.5483871,Africa/Douala,1
"Weifang,China",36.706962,119.161749,30.99393272,,,,,,,,
"Daqing,China",46.58931,125.103784,149.2360687,-19.4516129,1026.976452,-24.4516129,0.016129032,66.58064516,40.58064516,Asia/Shanghai,8
"Kayes,Mali",14.4367876,-11.4452717,49.22994995,26.58064516,1014.164194,5.129032258,0,37.06451613,9.838709677,Africa/Bamako,0
"Tongzhou,China",39.909946,116.656435,26.05388451,-5.096774194,1030.125806,-16.87096774,0.003225806,69.06451613,12.58064516,Asia/Shanghai,8
"Tabriz,Iran",38.096239,46.2738013,1365.768921,0.516129032,1018.262581,-4.903225806,0.329032258,88.58064516,39.58064516,Asia/Tehran,3.5
"Homs,Syria",34.7324273,36.7136959,500.5758362,,,,0,,,Asia/Beirut,2
"Rugao,China",32.370557,120.574946,6.985240936,,,,0,,,Asia/Shanghai,8
"Guiping,China",23.394326,110.079379,49.8452301,13.16129032,1021.573871,10.09677419,3.5,89.16129032,66.58064516,Asia/Shanghai,8
"Huainan,China",32.625478,116.999933,52.41257095,3.032258065,1027.966774,-1.612903226,1.241935484,92.4516129,46.25806452,Asia/Shanghai,8
"Kochi,India",9.9312328,76.2673041,7.96732378,27.80645161,1012.55871,22.83870968,0,86.06451613,48.06451613,Asia/Kolkata,5.5
"Suining,China",30.532847,105.592898,279.7085266,,,,0,,,Asia/Shanghai,8
"Bozhou,China",33.844582,115.778676,38.27588654,0.774193548,1029.155161,-5.129032258,0.141935484,76.83870968,44.09677419,Asia/Shanghai,8
"Zhanjiang,China",21.270746,110.359336,16.7377491,15.90322581,1019.351613,13.83870968,6.470967742,93.61290323,74.09677419,Asia/Shanghai,8
"Changde,China",29.031673,111.698497,38,,,,,,,,
"MONTEVIDEO,Uruguay",-34.9011127,-56.1645314,52.85170746,22.80645161,1012.638065,16.83870968,0.632258065,85.12903226,42.96774194,America/Montevideo,-3
"Suzhou(Jiangsu),China",31.298979,120.58529,6.082205296,4.935483871,1026.950323,-0.290322581,0,88.74193548,52.09677419,Asia/Shanghai,8
"Xintai,China",35.909032,117.767953,199.0040131,-2.677419355,1030.100323,-11.70967742,0.1,66.29032258,22.38709677,Asia/Shanghai,8
"Ekaterinoburg,Russia",56.8389261,60.6057025,245.446991,-16.90322581,1024.50129,-19.5483871,0.387096774,85.90322581,65.51612903,Asia/Yekaterinburg,5
"JuÌÁrez,Mexico",31.6903638,-106.4245478,1127.196411,8.387096774,1019.000968,-1.677419355,0.012903226,71.90322581,35.09677419,America/Chihuahua,-7
"Handan,China",36.625657,114.538962,55,,,,,,,,
"Visakhapatnam,India",17.6868159,83.2184815,54.02649689,24.70967742,1014.824516,18.93548387,0,86.5483871,40.90322581,Asia/Kolkata,5.5
"Kawasaki,Japan",35.5298198,139.7024039,18,6.774193548,1015.300323,-1.580645161,0,76.12903226,40.12903226,Asia/Tokyo,9
"Jiangjin,China",29.290069,106.259281,212.2685394,7.419354839,1023.376452,4,0.932258065,90.64516129,60.87096774,Asia/Shanghai,8
"Pingdu,China",36.776358,119.98842,51.99629211,-1.709677419,1028.642258,-10.5483871,0,74.35483871,25.77419355,Asia/Shanghai,8
"Agra,India",27.1766701,78.0080745,167.8369751,13.10714286,1017.355357,10.85714286,0,98.78571429,50.07142857,Asia/Kolkata,5.5
"Jiangyin,China",31.920658,120.284939,8.827615738,,,,,,,,
"Tijuana,Mexico",32.5149469,-117.0382471,109.8809509,13.38709677,1019.645484,5.258064516,0.961290323,83.4516129,40.51612903,America/Tijuana,-8
"Liuyang,China",28.162833,113.643076,85.85177612,6.032258065,1026.133871,2.193548387,0,91.74193548,66.09677419,Asia/Shanghai,8
"Bursa,Turkey",40.1885281,29.0609636,201.354126,5.096774194,1019.549677,2.032258065,1.587096774,90.80645161,53.93548387,Europe/Istanbul,2
"Al-Hasakeh,Syria",36.405515,40.7969149,293.7480469,5.903225806,1019.446774,1.129032258,0.593548387,88.70967742,48.87096774,Asia/Damascus,2
"Makkah,SaudiArabia",21.3890824,39.8579118,301.7571411,25.25806452,1014.760323,16.80645161,0,78.83870968,37.67741935,Asia/Riyadh,3
"YAOUNDE,Cameroon",3.8480325,11.5020752,710,25.22580645,1016.30129,18.16129032,0,95.35483871,39.16129032,Africa/Douala,1
"Xuanwei,China",26.219767,104.104475,1959.769531,3.806451613,,-1.516129032,0.087096774,91.67741935,41.83870968,Asia/Shanghai,8
"Dengzhou,China",32.687734,112.087455,113.9630127,,,,,,,,
"Palembang,Indonesia",-2.9760735,104.7754307,7,27.90322581,1011.010323,24.58064516,4.896774194,97.61290323,57.70967742,Asia/Jakarta,7
"NizhnyNovgorod,Russia",56.2965039,43.9360589,80.52346802,-11.87096774,1014.660323,-13.61290323,1.516129032,91.16129032,68.32258065,Europe/Moscow,3
"LeÌ_n(delosAldama),Mexico",21.1250077,-101.6859605,1805.477661,14.22580645,1021.962903,1.258064516,0,80.51612903,21.38709677,America/Mexico_City,-6
"Guarulhos,Brazil",-23.4543148,-46.5336521,746.0855103,23.41935484,1015.647742,19.51612903,0,98.64516129,62.77419355,America/Sao_Paulo,-2
"Heze,China",35.23375,115.480656,54.20968628,,,,0,,,Asia/Shanghai,8
"Auckland,NewZealand",-36.8484597,174.7633315,21,20.67741935,1015.189355,16.61290323,0,95.61290323,61.09677419,Pacific/Auckland,13
"Omdurman,Sudan",15.6475782,32.4806894,394.2482605,21.5862069,1016.321379,-1.724137931,0,33.24137931,13.34482759,Africa/Khartoum,3
"Shantou,China",23.354091,116.681972,7.928417683,14.74193548,1021.464839,10.70967742,4.883870968,91.83870968,60.22580645,Asia/Shanghai,8
"Leizhou,China",20.914179,110.096586,15.18688393,15.90322581,1019.351613,13.83870968,6.470967742,93.61290323,74.09677419,Asia/Shanghai,8
"Yongcheng,China",33.929291,116.4495,35.10994339,,,,0,,,Asia/Shanghai,8
"Valencia,Venezuela",10.1579312,-67.9972104,455.555603,27.35483871,1013.986452,20.09677419,0.003225806,83.74193548,44.06451613,America/Caracas,-4.5
"Thane,India",19.2183307,72.9780897,10.80256176,23.4516129,1013.840645,13.5483871,0,77,23.41935484,Asia/Kolkata,5.5
"SanAntonio(TX),UnitedStates",29.4241219,-98.4936282,198.9276428,11.41935484,1019.225806,4.096774194,1.229032258,87.32258065,39.70967742,America/Chicago,-6
"Xinyang,China",32.146984,114.091023,105.9628143,2.419354839,1029.036129,-3.129032258,0.648387097,80.93548387,49.16129032,Asia/Shanghai,8
"Luzhou,China",28.871811,105.442258,262.3058777,,,,,,,,
"Almaty,Kazakhstan",43.2220146,76.8512485,852.515686,-0.612903226,1023.088065,-4.580645161,2.003225806,95.48387097,58.48387097,Asia/Almaty,6
"Changshu,China",31.654376,120.752481,6.572896481,4.935483871,1026.950323,-0.290322581,0,88.74193548,52.09677419,Asia/Shanghai,8
"Taixing,China",32.171854,120.051744,2.690946817,,,,,,,,
"PHNOMPENH,Cambodia",11.5448729,104.8921668,14.2898531,27.96774194,1011.693871,21.67741935,0,86.83870968,47.93548387,Asia/Phnom_Penh,7
"Laiwu,China",36.213814,117.676724,197.3399658,-1,1029.696452,-11.06451613,0.193548387,56,25.25806452,Asia/Shanghai,8
"Xiaoshan,China",30.183806,120.264253,7.987250805,5.225806452,1027.174516,1.64516129,2.75483871,94.09677419,55.93548387,Asia/Shanghai,8
"Yiyang,China",28.55386,112.35518,81.18572998,6.032258065,1026.133871,2.193548387,0,91.74193548,66.09677419,Asia/Shanghai,8
"GoiÌ¢nia,Brazil",-16.6868824,-49.2647885,779.1193848,24.74193548,1014.479355,19.64516129,0,91.29032258,57.58064516,America/Sao_Paulo,-2
"Liuzhou,China",24.326038,109.42841,90.93036652,11.06451613,1022.647742,6.677419355,2.822580645,83.09677419,57.58064516,Asia/Shanghai,8
"Gaozhou,China",21.917982,110.853302,39.20294571,15.06451613,1019.909355,11.83870968,6.177419355,90.16129032,64.16129032,Asia/Shanghai,8
"Fengcheng(Jiangxi),China",28.159142,115.771094,24,6.677419355,1026.724516,2.161290323,2.470967742,81.58064516,56.32258065,Asia/Shanghai,8
"Cixi,China",30.169665,121.266579,9.256030083,6,1026.552581,2.35483871,0,94.93548387,61.22580645,Asia/Shanghai,8
"Karaj,Iran",35.8400188,50.9390906,1301.86792,5.3,1017.986,-5.7,0,76.3,29.93333333,Asia/Tehran,3.5
"MOGADISHU,Somalia",2.0469343,45.3181623,60.94033813,,,,,,,,
"Varanasi,India",25.3176452,82.9739144,80.98555756,16.19354839,1016.855806,11.4516129,0.129032258,92.41935484,50.87096774,Asia/Kolkata,5.5
"CÌ_rdoba,Argentina",-31.4200833,-64.1887761,411.8938904,23.87096774,1014.004516,17.51612903,3.522580645,93.93548387,39,America/Buenos_Aires,-3
"KAMPALA,Uganda",0.3475964,32.5825197,1177.084961,23.20689655,1016.774828,18.72413793,0.034482759,92.31034483,55.20689655,Africa/Kampala,3
"Ruian,China",27.778657,120.655148,9.67185688,,,,,,,,
"Lianjiang,China",26.197364,119.539704,13.70640945,11.38709677,1023.669355,7.741935484,3.577419355,92.67741935,63.35483871,Asia/Shanghai,8
"Huaian,China",33.61036,119.015288,19.42095184,,,,0,,,Asia/Shanghai,8
"Shiraz,Iran",29.5917677,52.5836982,1508.135254,7.129032258,1020.614839,-1.935483871,1.006451613,87.32258065,21.38709677,Asia/Tehran,3.5
"Multan,Pakistan",30.1983807,71.4687028,125.4191284,13.06451613,1017.178387,8.903225806,0.096774194,93.06451613,46.35483871,Asia/Karachi,5
"Madurai,India",9.9252007,78.1197754,138.6851654,26.06666667,1013.900333,19.33333333,0,86.76666667,42,Asia/Kolkata,5.5
"MÌ_nchen,Germany",48.1351253,11.5819806,515.3615723,0.903225806,1014.415484,-0.483870968,0,99.35483871,74.61290323,Europe/Berlin,1
"Kalyan,India",19.2403305,73.1305395,9.932518005,23.4516129,1013.840645,13.5483871,0,77,23.41935484,Asia/Kolkata,5.5
"Quanzhou,China",24.874132,118.675676,3.034729242,13.74193548,1022.11129,10.03225806,3.75483871,92.4516129,63.96774194,Asia/Shanghai,8
"Adana,Turkey",36.9914194,35.3308285,27.91534424,8.612903226,1018.693871,-0.35483871,1.34516129,79.32258065,30,Europe/Istanbul,2
"Bazhong,China",31.867903,106.747478,443.2151794,,,,0,,,Asia/Shanghai,8
"FÌ¬s,Morocco",34.0181246,-5.0078451,426.436554,13.12903226,1025.319677,5.612903226,0.490322581,87.09677419,31.70967742,Africa/Casablanca,0
"OUAGADOUGOU,BurkinaFaso",12.3714277,-1.5196603,297,25.06451613,1015.202258,0.35483871,0,33.32258065,6.451612903,Africa/Ouagadougou,0
"Haicheng,China",40.882377,122.685217,19.21503258,,,,,,,,
"Xishan,China",31.589715,120.357858,4.612221241,,,,,,,,
"Leiyang,China",26.422275,112.859795,71.29988861,,,,0,,,Asia/Shanghai,8
"Caloocan,Philippines",14.7565784,121.0449768,65.38967896,28.32258065,1011.594839,23.38709677,0.096774194,79.48387097,50.51612903,Asia/Manila,8
"Kalookan(Caloocan),Philippines",14.7565784,121.0449768,65.38967896,28.32258065,1011.594839,23.38709677,0.096774194,79.48387097,50.51612903,Asia/Manila,8
"Jingzhou,China",30.335165,112.239741,34.11865997,4.483870968,1028.080968,-0.129032258,0.487096774,81.19354839,53.41935484,Asia/Shanghai,8
"Saitama,Japan",35.8617292,139.6454822,19.50230598,4.129032258,1017.888387,-3.258064516,2.429032258,83.58064516,39.25806452,Asia/Tokyo,9
"PRAGUE,CzechRepublic",50.0755381,14.4378005,247.8612366,-0.903225806,1013.46,-2.64516129,0,97.16129032,75.19354839,Europe/Prague,1
"Fuqing,China",25.721143,119.384334,25.99760437,11.38709677,1023.669355,7.741935484,3.577419355,92.67741935,63.35483871,Asia/Shanghai,8
"Kumasi,Ghana",6.6666004,-1.6162709,259.1942749,29.11538462,1012.187692,14.53846154,0,62.61538462,20.23076923,,
"Meerut,India",28.9844618,77.7064137,225.0532074,15,1017.025161,11.5483871,0,98.41935484,48.58064516,Asia/Kolkata,5.5
"Hyderabad,Pakistan",25.3817509,68.3693897,23.96837997,18.5483871,1016.023871,11.19354839,0,76.90322581,29.35483871,Asia/Karachi,5
"Lufeng,China",22.917576,115.65226,4.837607861,15.35483871,1020.89871,11,5.335483871,84.67741935,60.67741935,Asia/Shanghai,8
"Dongtai,China",32.866933,120.320752,3.543883085,,,,,,,,
"Yixing,China",31.340637,119.823308,33.81991196,,,,,,,,
"Mianyang,China",31.467495,104.678946,472.9440002,27.46666667,1014.286452,19.6,0,80,44.13333333,America/Port-au-Prince,-5
"Wenling,China",28.372506,121.385604,3.415483713,,,,,,,,
"Leqing,China",28.113725,120.983906,6.917861462,,,,,,,,
"OTTAWA,Canada",45.4215296,-75.6971931,71.80735016,-7.035714286,1012.473214,-9.107142857,0,86.10714286,64,America/Toronto,-5
"Yushu,China",33.011674,97.091934,3633.165039,-7.580645161,,-22.25806452,0.032258065,46.41935484,6.677419355,Asia/Shanghai,8
"Barranquilla,Colombia",11.0041072,-74.8069813,58.30686569,28.22580645,1010.634839,23.83870968,0,95.41935484,54.5483871,America/Bogota,-5
"Hiroshima,Japan",34.3852029,132.4552927,13.19708443,6.35483871,1020.931613,1.387096774,2.390322581,86.25806452,54.35483871,Asia/Tokyo,9
"Chifeng,China",42.257817,118.886856,586.7229614,-12.48387097,1033.053871,-23.22580645,0.04516129,44.51612903,18.77419355,Asia/Shanghai,8
"Nashik,India",19.9974533,73.7898023,582.673645,19.80645161,1015.609032,8.064516129,0,78.96774194,13.74193548,Asia/Kolkata,5.5
"Makasar(UjungPandang),Indonesia",-5.1476651,119.4327314,7,28.09677419,1011.02,25.96774194,9.748387097,100,61.41935484,Asia/Makassar,8
"SOFIA,Bulgaria",42.6977082,23.3218675,552.166626,-1.225806452,1016.914516,-3.967741935,1.503225806,97.74193548,58.4516129,Europe/Sofia,2
"Rizhao,China",35.416734,119.526925,37.07482529,-0.290322581,1029.036129,-9.774193548,0.012903226,56.4516129,25.41935484,Asia/Shanghai,8
"Davao,Philippines",7.190708,125.455341,195.4502106,28.51612903,1012.722258,22.64516129,0.390322581,90.77419355,48.58064516,Asia/Manila,8
"Tianshui,China",34.580864,105.724947,1169.113892,,,,0,,,Asia/Shanghai,8
"Huzhou,China",30.894348,120.086823,2.740243435,5.225806452,1027.174516,1.64516129,2.75483871,94.09677419,55.93548387,Asia/Shanghai,8
"Samara(Samarskayaoblast),Russia",53.2415041,50.2212463,119.795723,-12.41935484,1017.938387,-14.48387097,0,91.16129032,76,Europe/Samara,4
"Omsk,Russia",54.9884804,73.3242362,86.22107697,-21.48387097,1034.347097,-24.06451613,0.025806452,87.38709677,55.90322581,Asia/Novosibirsk,6
"Gujranwala,Pakistan",32.1543783,74.1842254,228.1500549,11.96774194,1017.938387,7.35483871,0,95.64516129,57.06451613,Asia/Karachi,5
"Adelaide,Australia",-34.9284989,138.6007456,44.86626434,22.61290323,1013.391935,11.70967742,1.032258065,74.93548387,22.32258065,Australia/Adelaide,10.5
"Macheng,China",31.17274,115.008163,66.21863556,3.870967742,1027.592258,0.096774194,0.858064516,96,54.67741935,Asia/Shanghai,8
"Wuxian,China",40.2798737,123.2882099,79.43392944,-7.741935484,1027.382258,-16.96774194,0.035483871,57.74193548,25.12903226,Asia/Shanghai,8
"Bijie,China",27.283955,105.291644,1489.655518,3.709677419,,0.612903226,0.25483871,90.64516129,66.16129032,Asia/Shanghai,8
"Yuzhou,China",34.140701,113.488478,113.5755463,0.483870968,1028.62129,-9.419354839,0.103225806,75.90322581,22.87096774,Asia/Shanghai,8
"Leshan,China",29.552106,103.765568,354.9230652,,,,0,,,Asia/Shanghai,8
"LaMatanza,Argentina",-34.7862476,-58.6229664,15.60988903,24.16129032,1012.483548,16.38709677,1.583870968,88.16129032,32.51612903,America/Buenos_Aires,-3
"Rosario,Argentina",-32.9442426,-60.6505388,33.53073502,25.83870968,1011.179032,19.03225806,2,90.19354839,36.29032258,America/Buenos_Aires,-3
"Jabalpur,India",23.181467,79.9864071,422.4355469,18.06451613,1016.648065,9.096774194,0.238709677,82.48387097,23.19354839,Asia/Kolkata,5.5
"Kazan,Russia",55.8304307,49.0660806,63.90149307,-13.06451613,1017.342581,-14.29032258,1.293548387,94.03225806,68.58064516,Europe/Moscow,3
"Jimo,China",36.389402,120.447161,22.09797287,-1.709677419,1028.642258,-10.5483871,0,74.35483871,25.77419355,Asia/Shanghai,8
"Dingzhou,China",38.516461,114.990392,59.39260864,-3.64516129,1029.059032,-12.96774194,0,79.09677419,31.74193548,Asia/Shanghai,8
"Calgary,Canada",51.0486151,-114.0708459,1046.732788,-5.8,1016.164,-10.56666667,0.153333333,75.3,49.66666667,America/Edmonton,-7
"YEREVAN,Armenia",40.1791857,44.4991029,975.5020752,-1.774193548,1018.315161,-5.64516129,0,93.5483871,56.35483871,Asia/Yerevan,4
"El-Jadida,Morocco",33.2316326,-8.5007116,37.19981766,15.90322581,1023.708387,12.06451613,0.767741935,93.03225806,51,Africa/Casablanca,0
"Jamshedpur,India",22.8045665,86.2028754,150.3902283,19.03225806,1015.186774,10.96774194,0.096774194,88.87096774,24.03225806,Asia/Kolkata,5.5
"ZÌ_rich,Switzerland",47.3768866,8.541694,408.3877258,2.903225806,1015.820968,0.258064516,0,96.22580645,69.12903226,Europe/Zurich,1
"Zoucheng,China",35.405185,117.003743,84.66378021,-1.161290323,1029.343226,-8.161290323,0.129032258,76.61290323,31.16129032,Asia/Shanghai,8
"Pikine-Guediawaye,Senegal",14.7589446,-17.3937536,13.27096272,24.93548387,1013.440323,16.67741935,0,86.48387097,32.22580645,Africa/Dakar,0
"Anqiu,China",36.478494,119.218978,48.21551895,,,,,,,,
"Guang_an,China",30.456224,106.633088,302.4637146,7.419354839,1023.376452,4,0.932258065,90.64516129,60.87096774,Asia/Shanghai,8
"Chelyabinsk,Russia",55.1644419,61.4368431,222.8216095,-18,1024.643871,-20.4516129,0,86.41935484,73.29032258,Asia/Yekaterinburg,5
"CONAKRY,Guinea",9.6411855,-13.5784012,98.9380188,25.92307692,1012.22,21.53846154,0,92.57692308,54.07692308,Africa/Conakry,0
"Asansol,India",23.6739452,86.9523954,121.2698441,19.25806452,1015.271935,10.93548387,0.34516129,78.67741935,26.41935484,Asia/Kolkata,5.5
"Shouguang,China",36.85576,118.79074,22.55414772,,,,,,,,
"Changzhou,China",31.811226,119.974062,3.098692894,,,,,,,,
"Ulsan,SouthKorea",35.5383773,129.3113596,16.98911476,2.290322581,1023.008065,-9,0.838709677,57.48387097,21.03225806,Asia/Seoul,9
"Zhuji,China",29.708692,120.246863,16.31611633,5.225806452,1027.174516,1.64516129,2.75483871,94.09677419,55.93548387,Asia/Shanghai,8
"Toluca(deLerdo),Mexico",19.2826098,-99.6556653,2673.74585,10.51612903,1022.985806,1.838709677,0.229032258,95.80645161,26.64516129,America/Mexico_City,-6
"Marrakech,Morocco",31.6294723,-7.9810845,467.7638855,15.06451613,1024.27,6.419354839,0.132258065,85.87096774,25.77419355,Africa/Casablanca,0
"Dhanbad,India",23.7956531,86.4303859,246.2186279,,,,0,,,Asia/Kolkata,5.5
"TBILISI,Georgia",41.7151377,44.827096,606.7106323,,,,,,,,
"Hanchuan,China",30.661244,113.839149,28.27708626,3.870967742,1027.592258,0.096774194,0.858064516,96,54.67741935,Asia/Shanghai,8
"LUSAKA,Zambia",-15.3875259,28.3228165,1253.617676,23.3,,17.9,0,81.5,52.9,,
"Qidong,China",31.793278,121.655432,2.614637852,4.935483871,1026.950323,-0.290322581,0,88.74193548,52.09677419,Asia/Shanghai,8
"Faridabad,India",28.4089123,77.3177894,205.292572,15,1017.025161,11.5483871,0,98.41935484,48.58064516,Asia/Kolkata,5.5
"Zaoyang,China",32.128818,112.771959,113.1704254,,,,,,,,
"Zhucheng,China",35.995654,119.410103,64.77074432,,,,,,,,
"Rostov-na-Donu,Russia",47.2357137,39.701505,67.49271393,-4.096774194,1016.804516,-5.870967742,0,95.70967742,79.58064516,Europe/Moscow,3
"Jiangdu,China",32.434672,119.569989,7.928989887,,,,,,,,
"Xiangcheng,China",33.465838,114.875333,44.5114975,1.129032258,1029.366129,-6.548387097,0.074193548,70.03225806,38.67741935,Asia/Shanghai,8
"Zigong,China",29.33903,104.778442,310.7791138,,,,,,,,
"Jining(Shandong),China",35.414982,116.587282,38.89593124,-1.161290323,1029.343226,-8.161290323,0.129032258,76.61290323,31.16129032,Asia/Shanghai,8
"Edmonton,Canada",53.544389,-113.4909267,666.8341675,-8.483870968,1016.134516,-11.51612903,0.506451613,92.22580645,63.06451613,America/Edmonton,-7
"Allahabad,India",25.4358011,81.846311,94.81197357,,,,,,,,
"Beiliu,China",22.708311,110.354215,97.33926392,,,,0,,,Asia/Shanghai,8
"Dnipropetrovsk,Ukraine",48.464717,35.046183,60.50360489,-5.903225806,1014.967419,-7.451612903,2.129032258,96.87096774,74.93548387,Europe/Kiev,2
"Gongzhuling,China",43.504687,124.82283,212.2867432,-16.74193548,1026.486129,-23.03225806,0.009677419,71.38709677,32.09677419,Asia/Shanghai,8
"Qinzhou,China",21.979934,108.654147,9.683589935,13.03225806,1020.565806,10.5483871,2.293548387,97.03225806,66.70967742,Asia/Shanghai,8
"Ufa,Russia",54.7387621,55.9720554,176.3929749,-13,1021.680968,-15.58064516,0.893548387,86.51612903,53.19354839,Asia/Yekaterinburg,5
"Sendai,Japan",38.268215,140.8693558,57.2303009,2.916666667,1015.25125,-4,0,82.75,46.16666667,Asia/Tokyo,9
"Volgograd,Russia",48.708048,44.5133034,35.86743546,-7.967741935,1017.12129,-9.290322581,0,94.09677419,71.25806452,Europe/Moscow,3
"Ezhou,China",30.39194,114.894843,17.169981,3.870967742,1027.592258,0.096774194,0.858064516,96,54.67741935,Asia/Shanghai,8
"GUATEMALACITY,Guatemala",14.6349149,-90.5068824,1493.583496,18.38709677,1024.915161,13.12903226,34.93548387,94.96774194,50.87096774,America/Guatemala,-6
"Zhongxiang,China",31.16782,112.588121,51.61978531,3.064516129,1028.250968,-1.838709677,0.725806452,79.09677419,53.77419355,Asia/Shanghai,8
"AMSTERDAM,Netherlands",52.3702157,4.8951679,9.472566605,4.516129032,1009.199355,3.064516129,2.164516129,98.64516129,71.22580645,Europe/Amsterdam,1
"BRUSSELS,Belgium",50.8503463,4.3517211,18.43984795,4.612903226,1011.156129,2.838709677,2.122580645,96.83870968,64.83870968,Europe/Brussels,1
"BAMAKO,Mali",12.6392316,-8.0028892,329.7848511,25.03225806,1015.469677,3.516129032,0.096774194,52.22580645,10.19354839,Africa/Bamako,0
"Ziyang,China",30.128901,104.627636,366.7756042,7.322580645,1023.224516,2.516129032,0,92.5483871,54.41935484,Asia/Shanghai,8
"ANTANANARIVO,Madagascar",-18.8791902,47.5079055,1249.382202,22.41935484,1018.522903,18.83870968,7.658064516,98.41935484,48.58064516,Indiantananarivo,3
"Mudanjiang,China",44.551653,129.633169,233.9533081,-16,1025.656774,-22.74193548,0.390322581,60.38709677,31.5483871,Asia/Shanghai,8
"Amritsar,India",31.6339793,74.8722642,232.0050659,10.80645161,1017.747419,10.29032258,0.838709677,100,67.38709677,Asia/Kolkata,5.5
"Vijayawada,India",16.5061743,80.6480153,31.65884972,24.80645161,1014.539355,18.90322581,0.161290323,92.5483871,35.61290323,Asia/Kolkata,5.5
"Haora(Howrah),India",22.5957689,88.2636394,4,19.4516129,1014.798387,14.06451613,0.019354839,93.90322581,36.22580645,Asia/Kolkata,5.5
"Donetsk(Donestskayaoblast),Ukraine",48.015883,37.80285,210.2187805,,,,0,,,Europe/Kiev,2
"Huazhou,China",21.664044,110.639569,23.55097771,15.90322581,1019.351613,13.83870968,6.470967742,93.61290323,74.09677419,Asia/Shanghai,8
"Fuzhou(Jiangxi),China",27.949217,116.358182,44.88508224,7,1026.034516,4.258064516,2.870967742,92.19354839,68.35483871,Asia/Shanghai,8
"PimpriChinchwad,India",18.6297811,73.7997094,569.7285767,20.16129032,1014.90129,10.41935484,0,89.16129032,17.74193548,Asia/Kolkata,5.5
"DUBLIN,Ireland",53.3498053,-6.2603097,5.020810604,5.419354839,1002.567419,3.903225806,1.806451613,97.35483871,68.51612903,Europe/Dublin,0
"Rajkot,India",22.3038945,70.8021599,128.6469727,21.87096774,1015.796452,10.51612903,0,69.25806452,19.06451613,Asia/Kolkata,5.5
"SaoLuÌ_s,Brazil",-2.5391099,-44.2829046,6.245662689,27.77419355,1011.220323,22.29032258,2.090322581,83.12903226,51,America/Fortaleza,-3
"BÌ©ni-Mellal,Morocco",32.342443,-6.375799,506.6809692,,,,0,,,Africa/Casablanca,0
"Lianyuan,China",27.692542,111.664316,171.3747711,,,,0,,,Asia/Shanghai,8
"Liupanshui,China",26.592666,104.830359,1796.512695,3.806451613,,-1.516129032,0.087096774,91.67741935,41.83870968,Asia/Shanghai,8
"Kaduna,Nigeria",10.5104642,7.4165053,585.8626099,22.33333333,1015.35,-1,0,26.66666667,11.66666667,Africa/Lagos,1
"Kitakyushu,Japan",33.8834093,130.8752161,5.977061272,6.967741935,1020.862903,2.741935484,0,89.96774194,61.58064516,Asia/Tokyo,9
"Qianjiang,China",30.40211,112.900079,31.96434593,4.483870968,1028.080968,-0.129032258,0.487096774,81.19354839,53.41935484,Asia/Shanghai,8
"Perm,Russia",58.0296813,56.2667916,87,-14.09677419,1021.500968,-16.09677419,0,92.09677419,73.90322581,Asia/Yekaterinburg,5
"Odessa,Ukraine",46.482526,30.7233095,62.85785675,-2.709677419,1015.785806,-4.451612903,1.922580645,98.41935484,69.09677419,Europe/Kiev,2
"Qom,Iran",34.6399443,50.8759419,934.3505859,7.35483871,1020.879032,-3,0.258064516,73.61290323,19.61290323,Asia/Tehran,3.5
"Yongchuan,China",29.356117,105.927376,306.4905701,7.419354839,1023.376452,4,0.932258065,90.64516129,60.87096774,Asia/Shanghai,8
"Peshawar,Pakistan",34.0149748,71.5804899,322.9151001,12,1018.203548,5.516129032,0,87.48387097,50.96774194,Asia/Karachi,5
"Linzhou,China",36.083047,113.82013,295.4213257,,,,,,,,
"Benxi,China",41.486981,123.685143,99.77120209,-12.32258065,1029.092903,-20.87096774,0.025806452,63.83870968,19.61290323,Asia/Shanghai,8
"ULAANBAATAR,Mongolia",47.8863988,106.9057439,1302.256226,-26.12903226,1028.229677,-30.93548387,0.470967742,79.90322581,49.74193548,Asia/Ulaanbaatar,8
"Zhangqiu,China",36.681259,117.526228,143.1984253,-3.483870968,1029.105806,-10.5483871,0,84.77419355,36.87096774,Asia/Shanghai,8
"Yongzhou,China",26.420394,111.613445,102.6482544,6.741935484,1026.382581,4.096774194,2.274193548,92.29032258,67.03225806,Asia/Shanghai,8
"SaoGonÌ¤alo,Brazil",-22.8272883,-43.0637646,15.44337082,27,1011.243226,23.03225806,3.051612903,94.67741935,57.09677419,America/Sao_Paulo,-2
"Srinagar,India",34.0836708,74.7972825,1587.124146,4.387096774,,-0.483870968,0.44516129,90.70967742,40.93548387,Asia/Kolkata,5.5
"Ghaziabad,India",28.6691565,77.4537578,218.1665497,15,1017.025161,11.5483871,0,98.41935484,48.58064516,Asia/Kolkata,5.5
"Xinyi(Jiangsu),China",34.36958,118.354537,32.42329407,,,,,,,,
"KÌ¦ln,Germany",50.937531,6.9602786,50.00377655,3.806451613,1012.182581,2.064516129,0.693548387,97.19354839,69.41935484,Europe/Berlin,1
"Zhangjiagang,China",31.875572,120.556005,6.672556877,,,,,,,,
"Wafangdian,China",39.627114,121.979603,119.668045,-5.903225806,1028.210645,-13.38709677,0.041935484,74.19354839,25.4516129,Asia/Shanghai,8
"Xianyang,China",34.329605,108.708991,383.2186584,-1.387096774,1027.359355,-8.806451613,0,84.48387097,37.29032258,Asia/Shanghai,8
"Liaocheng,China",36.45703,115.98546,37.13460541,-1.612903226,1029.605161,-9.903225806,0.051612903,66.74193548,30.74193548,Asia/Shanghai,8
"Ahwaz,Iran",31.3183272,48.6706187,20.79568672,12.96774194,1019.74129,7.35483871,1.203225806,90.16129032,38.19354839,Asia/Tehran,3.5
"Taishan,China",22.251924,112.794065,14.49822044,16.19354839,1020.067097,11.87096774,4.219354839,87.4516129,57.35483871,Asia/Hong_Kong,8
"Linhai,China",28.858457,121.145046,10.47612,,,,,,,,
"Feicheng,China",36.182571,116.768358,107.2590179,-1,1029.696452,-11.06451613,0.193548387,56,25.25806452,Asia/Shanghai,8
"Suwon(Puwan),SouthKorea",37.266667,127.016667,45.23205566,-1.967741935,1025.404839,-10,0.006451613,77.5483871,37.32258065,Asia/Seoul,9
"Wuwei,China",37.928267,102.638201,1534.981812,,,,0,,,Asia/Shanghai,8
"Haimen,China",31.871173,121.181615,4.606212616,4.935483871,1026.950323,-0.290322581,0,88.74193548,52.09677419,Asia/Shanghai,8
"SanLuisPotosÌ_,Mexico",22.1564699,-100.9855409,1873.697144,12.5483871,1019.843871,-1.064516129,0.077419355,85.41935484,16.58064516,America/Mexico_City,-6
"Liling,China",27.646096,113.496999,90.04424286,,,,,,,,
"Xinhui,China",22.4583,113.034187,2.957081556,16.19354839,1020.067097,11.87096774,4.219354839,87.4516129,57.35483871,Asia/Hong_Kong,8
"Gaziantep,Turkey",37.065953,37.37811,832.5079956,2.709677419,1018.699677,-2,1.309677419,88.96774194,45,Europe/Istanbul,2
"Krasnoyarsk,Russia",56.0152834,92.8932476,139.7260742,-23.48387097,1037.798387,-27.03225806,0,84.19354839,67.90322581,Asia/Krasnoyarsk,7
"Chiba,Japan",35.6050574,140.1233063,3.024508476,7.523809524,1014.748095,-1.380952381,0,64.42857143,48.71428571,,
"Voronezh,Russia",51.6754966,39.2088823,151,-8.612903226,1013.68129,-10.38709677,0,94.25806452,76.83870968,Europe/Moscow,3
"Durg-BhilaiNagar,India",21.1904494,81.2849169,296.6963806,21.74193548,1015.109355,10.70967742,0.096774194,65.80645161,21.48387097,Asia/Kolkata,5.5
"Ruzhou,China",34.16703,112.844517,213.4253387,,,,,,,,
"MaceiÌ_,Brazil",-9.6498487,-35.7089492,12.3892355,26.64516129,1012.999032,23.70967742,1.883870968,99.41935484,59.96774194,America/Sao_Paulo,-2
"Yichun(Jiangxi),China",27.815743,114.416786,95.83339691,6.580645161,1026.514839,2.903225806,2,87.38709677,62.70967742,Asia/Shanghai,8
"Al-Madinah,SaudiArabia",24.5246542,39.5691841,588.7814331,18.61290323,1019.111613,2.35483871,0,51.51612903,14.03225806,Asia/Riyadh,3
"Yulin(Guangxi),China",22.636379,110.164756,82.5283432,,,,0,,,Asia/Shanghai,8
"Seongnam,SouthKorea",37.4449168,127.1388684,64.33280945,-1.967741935,1025.404839,-10,0.006451613,77.5483871,37.32258065,Asia/Seoul,9
"Yueyang,China",29.356804,113.12873,36.88874054,5.419354839,1027.750323,1.709677419,1.029032258,87.19354839,64.09677419,Asia/Shanghai,8
"Yiwu,China",29.306757,120.07514,72.82488251,,,,0,,,Asia/Shanghai,8
"SanJose(CA),UnitedStates",37.3382082,-121.8863286,24.55533409,12.32258065,1018.645161,7.64516129,3.350645161,90.4516129,58.64516129,America/Los_Angeles,-8
"Jixi,China",45.295075,130.969333,193.6722412,-15.93548387,1023.679677,-22.67741935,0.2,58.22580645,31.96774194,Asia/Shanghai,8
"MANAGUA,Nicaragua",12.1149926,-86.2361744,162.7896576,27.80645161,1011.17,20.06451613,0,87.29032258,43.19354839,America/Managua,-6
"Xinyi(Guangdong),China",22.354385,110.947044,88.76741028,15.06451613,1019.909355,11.83870968,6.177419355,90.16129032,64.16129032,Asia/Shanghai,8
"Safi,Morocco",32.3008151,-9.2272033,63.32577133,15.77419355,1024.895161,11.19354839,0.451612903,86.29032258,44.90322581,Africa/Casablanca,0
"Guangyuan,China",32.435435,105.843357,487.7919006,7.225806452,1025.031935,1.677419355,0.258064516,78.67741935,48.16129032,Asia/Shanghai,8
"Soweto,SouthAfrica",-26.2485377,27.8540323,1658.374634,23.22580645,1021.986774,12.32258065,0,79.32258065,33.4516129,Africa/Johannesburg,2
"Zhangjiakou,China",40.767545,114.886335,716.4598389,-10.64516129,1034.72,-20.58064516,0.025806452,44.22580645,19.61290323,Asia/Shanghai,8
"Baoding,China",38.874434,115.46459,24.50599098,-3.64516129,1029.059032,-12.96774194,0,79.09677419,31.74193548,Asia/Shanghai,8
"Cartagena,Colombia",10.3910485,-75.4794257,17.06512833,27.90322581,1009.816452,23.19354839,0,90.74193548,58.19354839,America/Bogota,-5
"Huludao,China",40.711041,120.83694,16.68570518,,,,,,,,
"Pingdingshan,China",33.76617,113.192661,124.1035614,,,,0,,,Asia/Shanghai,8
"Torino,Italy",45.070312,7.6868565,238.97229,2.548387097,1014.258065,-5.451612903,0.083870968,78,41.87096774,Europe/Rome,1
"Zengcheng,China",23.261141,113.81086,10.17263889,14.16129032,1021.093226,10.29032258,7.125806452,93.51612903,58.96774194,Asia/Shanghai,8
"Laiyang,China",36.978941,120.711673,42.45444107,,,,,,,,
"Qingzhou,China",36.684528,118.479622,100.7621918,,,,,,,,
"Aurangabad,India",19.8761653,75.3433139,594.7637329,21.77419355,1014.561935,14.58064516,0,75.77419355,39.87096774,Asia/Kolkata,5.5
"Lattakia,Syria",35.5407103,35.7952667,47.06434631,11.09677419,1018.55,4.870967742,1.819354839,89.61290323,40.5483871,Asia/Damascus,2
"MÌ©rida,Mexico",20.9673702,-89.5925857,10.7138443,23.61290323,1016.202903,18.61290323,0.083870968,98.80645161,48.80645161,America/Cancun,-5
"Laizhou,China",37.177017,119.942327,48.35590363,-1.935483871,1029.209355,-9.35483871,0.158064516,64.03225806,32.80645161,Asia/Shanghai,8
"Thiruvananthapuram,India",8.5241391,76.9366376,21.32456779,27.38709677,1011.204194,23.03225806,0,91.38709677,54.03225806,Asia/Kolkata,5.5
"Weinan,China",34.499995,109.509786,355.1371765,-1.387096774,1027.359355,-8.806451613,0,84.48387097,37.29032258,Asia/Shanghai,8
"Wuchang,China",30.554363,114.316422,28.66115189,3.870967742,1027.592258,0.096774194,0.858064516,96,54.67741935,Asia/Shanghai,8
"Guangshui,China",31.616854,113.82589,80.01246643,3.870967742,1027.592258,0.096774194,0.858064516,96,54.67741935,Asia/Shanghai,8
"Gaizhou,China",40.400611,122.348936,11.20693779,-9.161290323,1029.419677,-18.29032258,0.022580645,56.58064516,20.09677419,Asia/Shanghai,8
"GÌ¦teborg,Sweden",57.70887,11.97456,5.179251194,-2.64516129,1009.343548,-4.516129032,0,94.4516129,75.48387097,Europe/Stockholm,1
"Xiaogan,China",30.917766,113.957037,24.0266819,3.870967742,1027.592258,0.096774194,0.858064516,96,54.67741935,Asia/Shanghai,8
"TorreÌ_n,Mexico",25.5428443,-103.4067861,1128.250122,14.03225806,1018.643226,1.096774194,0.490322581,75.12903226,27.5483871,America/Cancun,-5
"Jiaxing,China",30.753924,120.758543,4.30795908,4.935483871,1026.950323,-0.290322581,0,88.74193548,52.09677419,Asia/Shanghai,8
"Kozhikode,India",11.2587531,75.78041,15.41701698,28.4516129,1012.119677,20.32258065,0,85.41935484,41.06451613,Asia/Kolkata,5.5
"SalÌ©,Morocco",34.0336969,-6.7708138,79.30809021,13.96774194,1024.254516,10.29032258,0.735483871,94.12903226,46.93548387,Africa/Casablanca,0
"Zhuzhou,China",27.827987,113.133853,46.11533737,6.032258065,1026.133871,2.193548387,0,91.74193548,66.09677419,Asia/Shanghai,8
"Tyneside,UnitedKingdom",55.0073428,-1.4459144,26.56275749,4.64516129,1002.463548,2.612903226,0,95.03225806,78.93548387,Europe/London,0
"Hengyang,China",26.893369,112.572018,81.54328156,,,,0,,,Asia/Shanghai,8
"Dehui,China",44.521785,125.72862,170.9747009,-16.74193548,1026.486129,-23.03225806,0.009677419,71.38709677,32.09677419,Asia/Shanghai,8
"Honghu,China",29.825458,113.47598,24.09756088,,,,0,,,Asia/Shanghai,8
"Danyang,China",32.010214,119.606439,13.48897362,3.032258065,1028.004516,-0.967741935,1.638709677,95.41935484,45.19354839,Asia/Shanghai,8
"Daye,China",30.095643,114.979875,26.68106651,3.870967742,1027.592258,0.096774194,0.858064516,96,54.67741935,Asia/Shanghai,8
"Solapur,India",17.6599188,75.9063906,474.0987854,24.61290323,1013.468387,10.87096774,0,44.5483871,20.35483871,Asia/Kolkata,5.5
"Xingning,China",24.13663,115.73111,121.8505936,,,,0,,,Asia/Shanghai,8
"Xiangfan,China",32.008986,112.122415,70.01622009,,,,,,,,
"Shubra-El-Khema,Egypt",30.1233853,31.2609288,20.71262932,13.61290323,1021.204839,5.129032258,0.135483871,77.06451613,32.32258065,Africa/Cairo,2
"Luoding,China",22.768595,111.570011,51.43042755,,,,0,,,Asia/Shanghai,8
"Gwalior,India",26.2182871,78.1828308,211.9999847,16.51612903,1016.681613,10.58064516,0.096774194,95.29032258,34.12903226,Asia/Kolkata,5.5
"Ranchi,India",23.3440997,85.309562,643.6016846,17.06451613,1016.665161,7.096774194,0.161290323,80.48387097,19.74193548,Asia/Kolkata,5.5
"Huiyang,China",22.789101,114.456539,31.06557274,15.38709677,1020.478387,11.22580645,4.703225806,90.19354839,61.19354839,Asia/Shanghai,8
"Mombasa,Kenya",-4.0434771,39.6682065,22.74033928,27.87096774,1011.551613,23.35483871,0,92.29032258,51.06451613,Africa/Nairobi,3
"Jinzhou(Liaoning),China",41.095685,121.126846,22.80859184,,,,,,,,
"Jiangyan,China",32.509155,120.127934,8,,,,,,,,
"Chenghai,China",23.46671,116.755992,9.11107254,14.74193548,1021.464839,10.70967742,4.883870968,91.83870968,60.22580645,Asia/Shanghai,8
"Jiamusi,China",46.799778,130.318879,82.11669159,,,,,,,,
"Songzi,China",30.176768,111.779894,43.68258286,,,,,,,,
"TEGUCIGALPA,Honduras",14.0722751,-87.192136,987.5648804,21.12903226,1018.383871,15.70967742,0,97.90322581,40.06451613,America/Tegucigalpa,-6
"Wujiang,China",31.138677,120.645158,7.470780849,4.935483871,1026.950323,-0.290322581,0,88.74193548,52.09677419,Asia/Shanghai,8
"Jodhpur,India",26.2389469,73.0243094,220.236084,18.80645161,1016.449677,7.258064516,0,74.90322581,18.58064516,Asia/Kolkata,5.5
"DuquedeCaxias,Brazil",-22.7862985,-43.3053106,28.79907227,26.61290323,1011.438387,21.5483871,4.709677419,89.67741935,51.22580645,America/Sao_Paulo,-2
"Xi_ning,China",36.617134,101.778224,2262.813477,-6.967741935,,-18.35483871,0.012903226,60.5483871,11.70967742,Asia/Shanghai,8
"Yuyao,China",30.037192,121.154634,6.130748749,6,1026.552581,2.35483871,0,94.93548387,61.22580645,Asia/Shanghai,8
"Hezhou,China",24.403582,111.566694,106.2253799,,,,0,,,Asia/Shanghai,8
"Jiangyou,China",31.778022,104.745823,537.7557983,27.46666667,1014.286452,19.6,0,80,44.13333333,America/Port-au-Prince,-5
"Tiruchchirappalli,India",10.7904833,78.7046725,81.21243286,25.5483871,1013.526452,20,0,91.70967742,39,Asia/Kolkata,5.5
"Baoshan,China",25.112046,99.161761,1672.947144,9.903225806,,1.612903226,0.6,77.83870968,25.03225806,Asia/Shanghai,8
"Saratov,Russia",51.5923654,45.9608032,144.0524139,-9.483870968,1016.247097,-11.4516129,0,92.90322581,76.03225806,Europe/Moscow,3
"NovaIguaÌ¤u,Brazil",-22.7561319,-43.4607419,23.70708466,26.74193548,1011.834839,21.48387097,0,91.35483871,56.09677419,America/Sao_Paulo,-2
"Ankang,China",32.684715,109.029022,270.4764099,4.548387097,1028.306129,-2.161290323,0.161290323,77.61290323,39,Asia/Shanghai,8
"Gaomi,China",36.382595,119.755597,25.27511597,-1.709677419,1028.642258,-10.5483871,0,74.35483871,25.77419355,Asia/Shanghai,8
"Yangchun,China",22.170438,111.791539,32,14.83870968,1020.137419,12,9.083870968,91.38709677,68.87096774,Asia/Shanghai,8
"SantiagodelosCaballeros,DominicanRepublic",19.4791963,-70.6930568,191.6043549,23.29032258,1015.947742,19.77419355,0,99.80645161,49.74193548,America/Santo_Domingo,-4
"Danzhou,China",19.521134,109.580811,143.377121,17.87096774,1018.253226,15.32258065,3,94.77419355,74.19354839,Asia/Shanghai,8
"LAPAZ,Bolivia",-16.489689,-68.1192936,3629.979492,10.67741935,1037.155806,3.516129032,2.5,91.77419355,28.67741935,America/La_Paz,-4
"Zhuanghe,China",39.680811,122.967328,1,,,,,,,,
"Zhuhai,China",22.270978,113.576678,7.004000187,15.03225806,1019.934839,12.67741935,3.6,93.5483871,68.70967742,Asia/Macau,8
"Zhaodong,China",46.051126,125.961814,144.9992065,-20.41935484,1025.027097,-23.80645161,0.04516129,83.77419355,45.29032258,Asia/Shanghai,8
"Sakai,Japan",34.573262,135.482998,6.093298435,6.741935484,1019.153548,-1.516129032,0,72.74193548,43.4516129,Asia/Tokyo,9
"Haikou,China",20.044002,110.198293,15,17.87096774,1018.253226,15.32258065,3,94.77419355,74.19354839,Asia/Shanghai,8
"Jiaonan,China",32.155333,117.650841,43.87042236,3.032258065,1027.966774,-1.612903226,1.241935484,92.4516129,46.25806452,Asia/Shanghai,8
"ElAlto,Bolivia",-16.5000936,-68.2146857,4023.997559,10.67741935,1037.155806,3.516129032,2.5,91.77419355,28.67741935,America/La_Paz,-4
"Xuancheng,China",30.94069,118.758588,18.01970863,3.032258065,1028.004516,-0.967741935,1.638709677,95.41935484,45.19354839,Asia/Shanghai,8
"Wuchuan,China",21.441808,110.778411,7.091193199,15.90322581,1019.351613,13.83870968,6.470967742,93.61290323,74.09677419,Asia/Shanghai,8
"Yuhang,China",30.419046,120.299402,11.52589226,5.225806452,1027.174516,1.64516129,2.75483871,94.09677419,55.93548387,Asia/Shanghai,8
"Qinhuangdao,China",39.935385,119.600493,4.01887846,,,,,,,,
"Bogor,Indonesia",-6.5971469,106.8060388,258.8508301,29.16666667,1010.811333,24.2,0,94.36666667,58.33333333,Asia/Jakarta,7
"Kermanshah,Iran",34.3276924,47.0777685,1341.694946,-0.483870968,1016.761613,-6.161290323,0,82.77419355,51.25806452,Asia/Tehran,3.5
"Longhai,China",24.446706,117.818197,9.910351753,13.74193548,1022.11129,10.03225806,3.75483871,92.4516129,63.96774194,Asia/Shanghai,8
"Liverpool,UnitedKingdom",53.4083714,-2.9915726,16.52501297,6.612903226,1004.375484,4.870967742,0,97.96774194,77.87096774,Europe/London,0
"Yanshi,China",34.72722,112.789534,123.5690002,,,,,,,,
"Guwahati,India",26.1445169,91.7362365,49.71243286,16.74193548,1015.705484,14.90322581,0.193548387,98.35483871,50.09677419,Asia/Kolkata,5.5
"Yichun(Heilongjiang),China",47.727536,128.841148,231.1715088,-20.58064516,1024.890323,-25.77419355,0.170967742,68.80645161,35.83870968,Asia/Shanghai,8
"Konya,Turkey",37.8746429,32.4931554,1027.954102,0.193548387,1017.07129,-3.935483871,0.341935484,92.61290323,44.61290323,Europe/Istanbul,2
"Barquisimeto,Venezuela",10.0677719,-69.3473509,596.3447266,25.19354839,1015.360968,18.16129032,0.006451613,91.77419355,37.74193548,America/Caracas,-4.5
"Yingde,China",24.206986,113.401702,38.09434891,14.16129032,1021.093226,10.29032258,7.125806452,93.51612903,58.96774194,Asia/Shanghai,8
"Bengbu,China",32.916287,117.389719,25.03682327,1.967741935,1028.900323,-3.032258065,0.487096774,83.67741935,44.87096774,Asia/Shanghai,8
"Yibin,China",28.751769,104.643215,321.3075256,,,,,,,,
"Chandigarh,India",30.7333148,76.7794179,348.652832,,,,,,,,
"Xiangxiang,China",27.73412,112.535028,49.79689789,6.032258065,1026.133871,2.193548387,0,91.74193548,66.09677419,Asia/Shanghai,8
"Yinchuan,China",38.487194,106.230909,1111,-8,1035.082581,-17.58064516,0.003225806,53.25806452,19.96774194,Asia/Shanghai,8
"Valencia,Spain",39.4699075,-0.3762881,12.88559532,12.19354839,1021.140645,5.35483871,0.019354839,82.03225806,30.77419355,Europe/Madrid,1
"Guilin,China",25.234479,110.179954,154.0702972,8.838709677,1023.564194,5.548387097,1.858064516,95.74193548,56.87096774,Asia/Shanghai,8
"Hamamatsu,Japan",34.7108344,137.7261258,17.54080772,7.8,1014.319,-1.1,0,68.4,46.9,,
"SaoBernardodoCampo,Brazil",-23.6898429,-46.5648481,795.5029297,23.03225806,1016.065484,17.51612903,3.15483871,87.12903226,48.51612903,America/Sao_Paulo,-2
"DeirEl-Zor,Syria",35.3296518,40.1350341,220.1201172,,,,,,,,
"BISHKEK,Kyrgyzstan",42.8746212,74.5697617,748,2.096774194,1025.997097,-4.032258065,2.270967742,78,41.03225806,Asia/Bishkek,6
"Teresina,Brazil",-5.0920108,-42.8037597,86.72854614,28.41935484,1010.976129,22.80645161,5.825806452,92.61290323,46.35483871,America/Fortaleza,-3
"Suihua,China",46.653845,126.968887,175.2372437,-20.41935484,1025.027097,-23.80645161,0.04516129,83.77419355,45.29032258,Asia/Shanghai,8
"BENGHAZI,Libya",32.0947711,20.1879106,58.30890274,,,,,,,,
"Jiutai,China",44.151742,125.839574,180.5314789,-16.74193548,1026.486129,-23.03225806,0.009677419,71.38709677,32.09677419,Asia/Shanghai,8
"Meishan,China",30.07544,103.848538,415.0706177,7.322580645,1023.224516,2.516129032,0,92.5483871,54.41935484,Asia/Shanghai,8
"Zaporizhya,Ukraine",47.8388,35.139567,85.5089798,-5.032258065,1015.685161,-6.903225806,1.425806452,96.64516129,70.19354839,Europe/Kiev,2
"Gaoyou,China",32.781659,119.459161,1.747962713,,,,0,,,Asia/Shanghai,8
"Marseille,France",43.296482,5.36978,3.741762161,8.741935484,1017.78,5.64516129,0.264516129,94.58064516,52.64516129,Europe/Paris,1
"Kaifeng,China",34.797281,114.307583,75.59381104,0.483870968,1028.62129,-9.419354839,0.103225806,75.90322581,22.87096774,Asia/Shanghai,8
"Changning,China",31.220367,121.424624,8.096745491,4.935483871,1026.950323,-0.290322581,0,88.74193548,52.09677419,Asia/Shanghai,8
"Tongliao,China",43.65289,122.243444,177.0104675,-13.67741935,1029.526452,-23.35483871,0,46.93548387,18.96774194,Asia/Shanghai,8
"Natal,Brazil",-5.7792569,-35.200916,19.35466957,26.41935484,1012.273226,23.12903226,2.293548387,93.61290323,60.77419355,America/Fortaleza,-3
"BandarLampung,Indonesia",-5.3971396,105.2667887,102.8528824,27.96774194,1011.342581,24.25806452,9.4,93.80645161,57.22580645,Asia/Jakarta,7
"Dongying,China",37.434751,118.674767,2.439881563,,,,0,,,Asia/Shanghai,8
"Gaoan,China",28.417255,115.375616,39.10930252,6.677419355,1026.724516,2.161290323,2.470967742,81.58064516,56.32258065,Asia/Shanghai,8
"Langzhong,China",31.558357,106.005046,364.2496643,7.225806452,1025.031935,1.677419355,0.258064516,78.67741935,48.16129032,Asia/Shanghai,8
"Lichuan,China",30.290996,108.936376,1079.116089,6.451612903,1026.524194,2.903225806,1.351612903,86.87096774,56.90322581,Asia/Shanghai,8
"Hubli-Dharwad,India",15.3647083,75.1239547,626.3363647,22,1013.185806,9.548387097,0,63.5483871,15.77419355,Asia/Kolkata,5.5
"Mysore,India",12.2958104,76.6393805,750.0726318,23.52941176,1016.552353,16.29411765,0,68.29411765,35.17647059,,
"Niigata,Japan",37.9161924,139.0364126,2.701572418,3.483870968,1017.205161,0.129032258,0,94.03225806,63.70967742,Asia/Tokyo,9
"Indianapolis(IN),UnitedStates",39.768403,-86.158068,222.7997284,-1.548387097,1017.83871,-6.451612903,1.195806452,84.09677419,56.80645161,America/Indianapolis,-5
"Jiaozhou,China",36.26468,120.033382,7.793096542,-1.709677419,1028.642258,-10.5483871,0,74.35483871,25.77419355,Asia/Shanghai,8
"Pingxiang(Jiangxi),China",27.622768,113.854556,95.8567276,6.032258065,1026.133871,2.193548387,0,91.74193548,66.09677419,Asia/Shanghai,8
"Haiphong,VietNam",20.8449115,106.6880841,7.869818211,16.58064516,1019.012258,15.03225806,2.358064516,96.74193548,77.70967742,Asia/Ho_Chi_Minh,7
"Arequipa,Peru",-16.4090474,-71.537451,2320.849609,16.64516129,1026.415806,4.322580645,0,72.25806452,19.16129032,America/Lima,-5
"Jacksonville(FL),UnitedStates",30.3321838,-81.655651,4.78456068,12.64516129,1018.16129,6.35483871,1.696129032,84.87096774,48.74193548,America/New_York,-5
"Tanger,Morocco",35.7594651,-5.8339543,49.45965958,14.12903226,1024.397097,10.41935484,0.819354839,91.19354839,52.93548387,Africa/Casablanca,0
"Dandong,China",40.000787,124.354451,5,-7.741935484,1027.382258,-16.96774194,0.035483871,57.74193548,25.12903226,Asia/Shanghai,8
"KISHINEV,Moldova",47.0104529,28.8638103,40.03145599,-3.225806452,1016.714194,-6.225806452,0.419354839,85.25806452,59.61290323,Europe/Chisinau,2
"Krasnodar,Russia",45.0392674,38.987221,26.25589943,-0.516129032,1017.010968,-3.193548387,0,95.12903226,70.03225806,Europe/Moscow,3
"ZAGREB,Croatia",45.8150108,15.981919,132.6153412,1.387096774,1017.767742,-1.935483871,1.061290323,90.74193548,52.29032258,Europe/Zagreb,1
"Xinmi,China",34.539443,113.390891,309.2529297,0.483870968,1028.62129,-9.419354839,0.103225806,75.90322581,22.87096774,Asia/Shanghai,8
"Chaohu,China",31.624522,117.890355,13.4530983,3.032258065,1027.966774,-1.612903226,1.241935484,92.4516129,46.25806452,Asia/Shanghai,8
"Xinyu,China",27.817809,114.917347,62.84960938,6.580645161,1026.514839,2.903225806,2,87.38709677,62.70967742,Asia/Shanghai,8
"Gongyi,China",34.747834,113.022497,212.869278,0.483870968,1028.62129,-9.419354839,0.103225806,75.90322581,22.87096774,Asia/Shanghai,8
"Huixian,China",35.462313,113.805468,95,0.483870968,1028.62129,-9.419354839,0.103225806,75.90322581,22.87096774,Asia/Shanghai,8
"Xinxiang,China",35.303136,113.927016,70.22283936,0.483870968,1028.62129,-9.419354839,0.103225806,75.90322581,22.87096774,Asia/Shanghai,8
"PortElizabeth,SouthAfrica",-33.7139247,25.5207358,87.85710907,22.48387097,1015.742903,18.09677419,0.103225806,92.19354839,51.35483871,Africa/Johannesburg,2
"Mendoza,Argentina",-32.8894587,-68.8458386,768.7654419,25.06451613,1011.050323,15.64516129,1.45483871,81.80645161,29.74193548,America/Buenos_Aires,-3
"Nantong,China",31.980172,120.894291,1.963749766,,,,,,,,
"Pengzhou,China",30.990108,103.958014,593.5120239,7.322580645,1023.224516,2.516129032,0,92.5483871,54.41935484,Asia/Shanghai,8
"Khulna,Bangladesh",22.845641,89.5403279,8.167787552,17.83333333,1015.620333,13,0.1,93.66666667,37.06666667,Asia/Dhaka,6
"Malang,Indonesia",-7.9666204,112.6326321,460.9630127,29.16129032,1010.832903,24.61290323,4.870967742,86.67741935,54.09677419,Asia/Jakarta,7
"Padang,Indonesia",-0.9470832,100.417181,55.71012115,27.25806452,1010.899032,24.51612903,15.68064516,94.22580645,62.38709677,Asia/Jakarta,7
"Anyang,China",36.097577,114.392393,70.90680695,,,,,,,,
"Renqiu,China",38.683592,116.082918,9,-4.290322581,1030.152258,-14.29032258,0.032258065,67.80645161,19.5483871,Asia/Shanghai,8
"Foshan,China",23.021479,113.121436,5,14.16129032,1021.093226,10.29032258,7.125806452,93.51612903,58.96774194,Asia/Shanghai,8
"Anshun,China",26.253072,105.947594,1378.072998,5.032258065,1021.516452,2.677419355,0.816129032,97.19354839,69.32258065,Asia/Shanghai,8
"Chihuahua,Mexico",28.6329957,-106.0691004,1429.235107,9.193548387,1018.964194,-6.096774194,0,61.38709677,18.09677419,America/Chihuahua,-7
"CampoGrande,Brazil",-20.4697105,-54.6201211,522.3168335,25.12903226,1011.379677,20.22580645,4.574193548,92.09677419,42.19354839,America/Cuiaba,-3
"LÌ_dz,Poland",51.7592485,19.4559833,205.9776611,-2.64516129,1013.543871,-4.419354839,0,96.19354839,75.32258065,Europe/Warsaw,1
"Goyang,SouthKorea",37.6583599,126.8320201,28.88627243,-3.64516129,1025.484839,-12.93548387,0,72.80645161,29.48387097,Asia/Seoul,9
"BeninCity,Nigeria",6.334986,5.6037465,87.88222504,,,,0,,,Africa/Lagos,1
"Bucheon(Puchon),SouthKorea",37.5034138,126.7660309,20.67152405,-3.64516129,1025.484839,-12.93548387,0,72.80645161,29.48387097,Asia/Seoul,9
"Gaocheng,China",38.021567,114.847075,58.83828354,-3.64516129,1029.059032,-12.96774194,0,79.09677419,31.74193548,Asia/Shanghai,8
"Pulandian,China",39.394349,121.963259,17.51177025,-5.903225806,1028.210645,-13.38709677,0.041935484,74.19354839,25.4516129,Asia/Shanghai,8
"Hejian,China",38.446624,116.099518,13.8300724,-2.870967742,1030.350323,-12.80645161,0.064516129,60.77419355,22.32258065,Asia/Shanghai,8
"Dafeng,China",33.201174,120.500239,3.28579402,,,,,,,,
"KrakÌ_w,Poland",50.0646501,19.9449799,214.0342102,-2.516129032,1014.832581,-4.451612903,0.293548387,95.5483871,64.77419355,Europe/Warsaw,1
"Enshi,China",30.272156,109.488172,490.151062,6.451612903,1026.524194,2.903225806,1.351612903,86.87096774,56.90322581,Asia/Shanghai,8
"Dongyang,China",29.289648,120.241566,75.38576508,,,,0,,,Asia/Shanghai,8
"Lviv,Ukraine",49.839683,24.029717,283.7850647,-4.225806452,1014.59,-5.806451613,1.248387097,97.67741935,67.51612903,Europe/Kiev,2
"Kunshan,China",31.385598,120.980737,6.653121471,4.935483871,1026.950323,-0.290322581,0,88.74193548,52.09677419,Asia/Shanghai,8
"Shuangcheng,China",45.383263,126.312745,167.65448,-20.41935484,1025.027097,-23.80645161,0.04516129,83.77419355,45.29032258,Asia/Shanghai,8
"Salem,India",11.664325,78.1460142,285.118042,,,,,,,,
"Jiaozuo,China",35.215893,113.241823,100.4470139,0.483870968,1028.62129,-9.419354839,0.103225806,75.90322581,22.87096774,Asia/Shanghai,8
"Ad-Dammam,SaudiArabia",26.3926665,49.9777136,5.926994324,16.06451613,1018.112581,7.193548387,0,80.19354839,27.48387097,Asia/Riyadh,3
"Huaibei,China",33.955845,116.798265,32.3286972,0.967741935,1029.14,-6.032258065,0.25483871,74.16129032,34.96774194,Asia/Shanghai,8
"Liyang,China",31.416911,119.484211,6.580744743,3.032258065,1028.004516,-0.967741935,1.638709677,95.41935484,45.19354839,Asia/Shanghai,8
"SamutPrakan,Thailand",13.5990961,100.5998319,3.875924587,27.12903226,1013.016452,21.12903226,1.661290323,93.03225806,40.25806452,Asia/Bangkok,7
"Rongcheng,China",37.16516,122.486658,17.22685051,-0.870967742,1027.52871,-7.096774194,0.125806452,65.35483871,42.35483871,Asia/Shanghai,8
"Cenxi,China",22.91835,110.994913,106.4982986,,,,0,,,Asia/Shanghai,8
"Nampho,NorthKorea",38.7522606,125.3246769,15.37134743,-5.580645161,1026.433548,-11.19354839,0.15483871,80,38.67741935,Asia/Pyongyang,8.5
"Columbus(OH),UnitedStates",39.9611755,-82.9987942,237.6291656,-1.903225806,1017.903226,-7.580645161,0.917419355,78.09677419,51.87096774,America/New_York,-5
"Bareilly,India",28.3670355,79.4304381,177.5299377,15.32258065,1017.044516,11.61290323,0,92.70967742,51.29032258,Asia/Kolkata,5.5
"Leping,China",28.97844,117.151796,31.02910423,,,,0,,,Asia/Shanghai,8
"Laixi,China",36.889084,120.51769,70.39308929,-1.709677419,1028.642258,-10.5483871,0,74.35483871,25.77419355,Asia/Shanghai,8
"Liaoyang,China",41.267244,123.236944,27.02798271,-12.32258065,1029.092903,-20.87096774,0.025806452,63.83870968,19.61290323,Asia/Shanghai,8
"Zhaotong,China",27.338257,103.717465,1931.951294,3.903225806,,-2.516129032,0.093548387,81.80645161,36.35483871,Asia/Shanghai,8
"JERUSALEM,Israel",31.768319,35.21371,779.4530029,12.16129032,1019.855806,6.838709677,2.503225806,90.25806452,41.64516129,Asia/Jerusalem,2
"Tainan,China",22.9997281,120.2270277,27.84719467,17.86666667,1019.699,14.13333333,4.225806452,87.16666667,64.33333333,Asia/Taipei,8
"Cuernavaca,Mexico",18.9242095,-99.2215659,1522.142334,18.83870968,1019.67,4.967741935,0.161290323,62.96774194,25.4516129,America/Mexico_City,-6
"RIGA,Latvia",56.9496487,24.1051864,15.87454224,-5.806451613,1012.314839,-7.806451613,0.825806452,89.19354839,73.90322581,Europe/Riga,2
"Linfen,China",36.088005,111.518976,450.3043213,,,,0,,,Asia/Shanghai,8
"QuÌ©bec,Canada",46.8138783,-71.2079809,44.17912674,,,,1.209677419,,,America/Montreal,-5
"Lingbao,China",34.516828,110.89422,426.225769,,,,,,,,
"Shangyu,China",30.033121,120.868122,8.062146187,6,1026.552581,2.35483871,0,94.93548387,61.22580645,Asia/Shanghai,8
"Wuan,China",36.696506,114.203697,193.5093536,,,,,,,,
"Hailun,China",47.461971,126.973143,240.0106049,-23.16129032,1029.792903,-27.29032258,0.048387097,69.61290323,47.64516129,Asia/Shanghai,8
"Xingyi,China",25.09204,104.895467,1250.931885,8.096774194,1020.33129,4.193548387,0.277419355,90.5483871,54.74193548,Asia/Shanghai,8
"Wuxue,China",29.844107,115.561217,19.64710999,,,,,,,,
"Cebu,Philippines",10.607936,123.8857747,301.9205322,26.32258065,1013.89129,23.06451613,1.496774194,92.61290323,59.29032258,Asia/Manila,8
"Aguascalientes,Mexico",21.8853247,-102.2915131,1876.813354,12.61290323,1021.055484,-3.451612903,0.009677419,77.12903226,11.5483871,America/Mexico_City,-6
"Tolyatti,Russia",53.5086002,49.4198344,112.3117065,-12.41935484,1017.938387,-14.48387097,0,91.16129032,76,Europe/Samara,4
"Hamilton,Canada",43.2557206,-79.8711024,100,-2.483870968,1014.617097,-6.516129032,1.006451613,88.22580645,49.83870968,America/Montreal,-5
"Zhoushan,China",29.985295,122.207216,2.749041796,6,1026.552581,2.35483871,0,94.93548387,61.22580645,Asia/Shanghai,8
"Langfang,China",39.538047,116.683752,18,-5.096774194,1030.125806,-16.87096774,0.003225806,69.06451613,12.58064516,Asia/Shanghai,8
"Osasco,Brazil",-23.5328871,-46.7919978,753.468689,23.93548387,1015.271935,17.70967742,0,87.4516129,53.41935484,America/Sao_Paulo,-2
"Nonthaburi,Thailand",13.8591084,100.5216508,9.208902359,27.12903226,1013.016452,21.12903226,1.661290323,93.03225806,40.25806452,Asia/Bangkok,7
"Dashiqiao,China",40.644622,122.509131,44.50577545,,,,,,,,
"Tongxiang,China",30.630173,120.565099,7.119146824,5.225806452,1027.174516,1.64516129,2.75483871,94.09677419,55.93548387,Asia/Shanghai,8
"Yichang,China",30.691967,111.286471,59.12647247,,,,,,,,
"Yangzhou,China",32.394213,119.412947,11.90298557,3.032258065,1028.004516,-0.967741935,1.638709677,95.41935484,45.19354839,Asia/Shanghai,8
"BlantyreCity,Malawi",-15.7666707,35.0167866,1100.049438,24.29411765,1015.430588,19.64705882,0,79.58823529,52.58823529,Africa/Blantyre,2
"Hamhung,NorthKorea",39.9838002,127.6124553,33.50786972,-3.935483871,1021.931613,-11.22580645,0.074193548,76.35483871,30.80645161,Asia/Pyongyang,8.5
"Jalandhar,India",31.3260152,75.5761829,240.4796906,10.80645161,1017.747419,10.29032258,0.838709677,100,67.38709677,Asia/Kolkata,5.5
"Al-Rakka,Syria",35.9594106,38.9981052,255,,,,0,,,Asia/Damascus,2
"NIAMEY,Niger",13.5115963,2.1253854,221.7870789,24.29032258,1015.215484,-3.967741935,0,25.51612903,4.741935484,Africa/Niamey,1
"Xiangtan,China",27.829738,112.944049,68.29136658,6.032258065,1026.133871,2.193548387,0,91.74193548,66.09677419,Asia/Shanghai,8
"Winnipeg,Canada",49.895136,-97.1383744,231.6443481,-12.61290323,1016.948065,-15.64516129,0.687096774,86.67741935,62.58064516,America/Winnipeg,-6
"Oran(Wahran),Algeria",35.6976541,-0.6337376,112.6472626,13.41935484,1023.540323,9.258064516,0.429032258,98.19354839,46.35483871,Africa/Algiers,1
"Kota,India",25.2138156,75.8647527,259.7347412,18.19354839,1016.238387,10.58064516,0.006451613,73.96774194,30.74193548,Asia/Kolkata,5.5
"Sevilla,Spain",37.3890924,-5.9844589,9.057069778,12.58064516,1024.166774,9.387096774,0.283870968,96.38709677,62.51612903,Europe/Madrid,1
"NaviMumbai(NewBombay),India",19.0330488,73.0296625,17.32777786,23.4516129,1013.840645,13.5483871,0,77,23.41935484,Asia/Kolkata,5.5
"PortHarcourt,Nigeria",4.815554,7.0498442,5,26.42857143,1011.341429,21.42857143,0,92,55.14285714,Africa/Lagos,1
"Saltillo,Mexico",25.4267244,-100.9954254,1576.161377,9.64516129,1021.532903,1.225806452,0.419354839,78.48387097,26.77419355,America/Cancun,-5
"KhartoumNorth,Sudan",15.6569409,32.5485873,383.7569275,21.5862069,1016.321379,-1.724137931,0,33.24137931,13.34482759,Africa/Khartoum,3
"Shizuoka,Japan",34.9771201,138.3830845,24.16509247,7.8,1014.319,-1.1,0,68.4,46.9,,
"Yuanjiang,China",28.847045,112.355954,39.67287827,,,,,,,,
"Raipur,India",21.2513844,81.6296413,296.9813843,21.74193548,1015.109355,10.70967742,0.096774194,65.80645161,21.48387097,Asia/Kolkata,5.5
"KryviyRig,Ukraine",47.910483,33.391783,96.60488892,-6.096774194,1015.090323,-7.838709677,0,95.16129032,76.12903226,Europe/Kiev,2
"Yingkou,China",40.667012,122.235418,4.855307102,,,,,,,,
"Wuhu,China",31.352859,118.432941,7.990524769,3.032258065,1028.004516,-0.967741935,1.638709677,95.41935484,45.19354839,Asia/Shanghai,8
"Zhenjiang,China",32.187849,119.425836,22.51834869,3.032258065,1028.004516,-0.967741935,1.638709677,95.41935484,45.19354839,Asia/Shanghai,8
"QuerÌ©taro,Mexico",20.5888184,-100.3898876,1822.226563,15,1021.773871,2.967741935,0.009677419,87.4516129,20.12903226,America/Mexico_City,-6
"Nankang,China",25.661471,114.765403,135.3199158,9.290322581,1025.05871,5.548387097,3.95483871,87.03225806,61.70967742,Asia/Shanghai,8
"Wugang(Hunan),China",26.726599,110.631884,318.4368896,6.387096774,1026.593226,3.193548387,1.929032258,89.35483871,65.93548387,Asia/Shanghai,8
"Hegang,China",47.349916,130.297964,175.5690918,,,,,,,,
"Linqing,China",36.838277,115.704881,37.37063217,,,,0,,,Asia/Shanghai,8
"PRETORIA,SouthAfrica",-25.7478676,28.2292712,1370.408203,23.07142857,1023.046429,11.35714286,0.4125,75.85714286,25.71428571,Africa/Johannesburg,2
"Zunyi,China",27.725654,106.927389,864.5811157,,,,0,,,Asia/Shanghai,8
"Panzhihua,China",26.582347,101.718637,1156.456787,7.838709677,,-1.064516129,0.093548387,75.38709677,20.80645161,Asia/Shanghai,8
"Austin(TX),UnitedStates",30.267153,-97.7430608,149.1394653,11.25806452,1020.129032,3.451612903,0.278387097,86.32258065,41.09677419,America/Chicago,-6
"Changle,China",25.962888,119.523266,41.04263306,11.38709677,1023.669355,7.741935484,3.577419355,92.67741935,63.35483871,Asia/Shanghai,8
"Lianyungang,China",34.596653,119.221611,3.890421152,,,,,,,,
"Yancheng,China",33.347316,120.16366,1,,,,,,,,
"Zunhua,China",40.189202,117.965892,53.21660233,,,,0,,,Asia/Shanghai,8
"Changyi,China",36.85882,119.398525,11,,,,,,,,
"MeknÌ¬s,Morocco",33.8730164,-5.5407299,558.1940918,13,1025.005484,6,0.306451613,87.03225806,33.29032258,Africa/Casablanca,0
"Qiongshan,China",20.00317,110.353972,19.76570892,17.87096774,1018.253226,15.32258065,3,94.77419355,74.19354839,Asia/Shanghai,8
"Bulawayo,Zimbabwe",-20.1325066,28.626479,1322.843994,24.12903226,1019.36,14.64516129,0,81.03225806,34.35483871,Africa/Harare,2
"Wendeng,China",37.193886,122.057941,45.12515259,,,,,,,,
"Okayama,Japan",34.6551456,133.9195019,3.269193411,4.096774194,1018.864516,-1.096774194,0,87.19354839,52.51612903,Asia/Tokyo,9
"SantoAndrÌ©,Brazil",-23.6742228,-46.5436003,785.9865723,23.03225806,1016.065484,17.51612903,3.15483871,87.12903226,48.51612903,America/Sao_Paulo,-2
"RABAT,Morocco",33.9715904,-6.8498129,78.10929871,13.96774194,1024.254516,10.29032258,0.735483871,94.12903226,46.93548387,Africa/Casablanca,0
"Pakanbaru,Indonesia",0.5070677,101.4477793,16.49215508,27.87096774,1010.099677,24.32258065,8.461290323,98.09677419,58.12903226,Asia/Jakarta,7
"Nehe,China",48.484099,124.884244,203.0119476,-21.61290323,1025.527097,-27,0.132258065,61.29032258,36.96774194,Asia/Shanghai,8
"Memphis(TN),UnitedStates",35.1495343,-90.0489801,79.1960144,5.258064516,1019.709677,-1.419354839,1.859677419,80.74193548,46.38709677,America/Chicago,-6
"JoaoPessoa,Brazil",-7.1194958,-34.8450118,43.00482178,27.16129032,1012.976129,22.5483871,0,92.64516129,57.4516129,America/Fortaleza,-3
"KATHMANDU,Nepal",27.7172453,85.3239605,1301.602051,10.77419355,1018.966452,5.129032258,0,98.41935484,35.74193548,Asia/Katmandu,5.75
"Longkou,China",37.646108,120.477813,30.88146973,,,,,,,,
"Shengzhou,China",29.56141,120.831026,23.00488472,6,1026.552581,2.35483871,0,94.93548387,61.22580645,Asia/Shanghai,8
"Antalya,Turkey",36.8968908,30.7133233,53.04613495,9.290322581,1018.073548,0.64516129,2.774193548,76.77419355,32.87096774,Europe/Istanbul,2
"Kumamoto,Japan",32.8031004,130.7078911,13.77850342,5.516129032,1020.530968,1.774193548,0,94.16129032,59.70967742,Asia/Tokyo,9
"LILONGWE,Malawi",-13.9626121,33.7741195,1055.278931,23.09677419,1017.423226,17.90322581,0,87.12903226,50.29032258,Africa/Blantyre,2
"Mexicali,Mexico",32.6245389,-115.4522623,1.18E-38,13.41935484,1018.285484,1.870967742,0.080645161,75.80645161,26.87096774,America/Tijuana,-8
"Kaiping,China",22.376395,112.698545,6.276619434,,,,0,,,Asia/Shanghai,8
"Palermo,Italy",38.1156879,13.3612671,16.68776512,13.35483871,1019.87,7.612903226,0,80.80645161,53.61290323,Europe/Rome,1
"Aligarh,India",27.8973944,78.0880129,188.6563416,,,,,,,,
"Nottingham,UnitedKingdom",52.9547832,-1.1581086,69.22570801,5.612903226,1005.490323,3.677419355,0,97.48387097,75.70967742,Europe/London,0
"Haining,China",30.510659,120.680757,6.334308624,5.225806452,1027.174516,1.64516129,2.75483871,94.09677419,55.93548387,Asia/Shanghai,8
"Mosul,Iraq",36.3566484,43.1640004,225.9248962,,,,,,,,
"Hermosillo,Mexico",29.0729673,-110.9559192,205.3074493,16.93548387,1017.071613,1.774193548,0,78.58064516,15,America/Chihuahua,-7
"Tongcheng,China",31.0358,116.97412,48.35516739,3.032258065,1027.966774,-1.612903226,1.241935484,92.4516129,46.25806452,Asia/Shanghai,8
"Shulan,China",44.406106,126.965607,233.948822,,,,0,,,Asia/Shanghai,8
"Miluo,China",28.806394,113.06724,41.72691727,6.032258065,1026.133871,2.193548387,0,91.74193548,66.09677419,Asia/Shanghai,8
"Bhubaneswar,India",20.2960587,85.8245398,45.42416763,23.09677419,1015.08,16.70967742,0,94.5483871,29.80645161,Asia/Kolkata,5.5
"Yangquan,China",37.856972,113.580519,672.3602905,-5.322580645,1025.918387,-18.61290323,0.087096774,62.93548387,15.5483871,Asia/Shanghai,8
"Chenzhou,China",25.77051,113.014718,188.802002,5.806451613,1025.886774,3.64516129,3.396774194,93.41935484,75.48387097,Asia/Shanghai,8
"Haiyang,China",36.776378,121.158434,39.03517151,,,,,,,,
"Morelia,Mexico",19.7059504,-101.1949825,1905.53479,15.32258065,1018.887419,5.096774194,0.067741935,89.35483871,21.32258065,America/Mexico_City,-6
"Huangshi(Hubei),China",30.200031,115.038835,21.18002129,3.870967742,1027.592258,0.096774194,0.858064516,96,54.67741935,Asia/Shanghai,8
"Xinmin,China",41.996508,122.828868,36.58107758,-12.32258065,1029.092903,-20.87096774,0.025806452,63.83870968,19.61290323,Asia/Shanghai,8
"TÌ©touan,Morocco",35.5888995,-5.3625516,125.707283,15,1023.822903,9.322580645,0.609677419,83.77419355,43.67741935,Africa/Casablanca,0
"Barnaul,Russia",53.3547792,83.7697832,192.8817444,-17.74193548,1033.779032,-20.83870968,0.048387097,83.51612903,53.16129032,Asia/Novosibirsk,6
"Qixia,China",32.096228,118.909246,18.27132607,3.032258065,1028.004516,-0.967741935,1.638709677,95.41935484,45.19354839,Asia/Shanghai,8
"JaboataodosGuarapes,Brazil",-8.1693806,-34.9370588,12.48723412,27.32258065,1012.407419,23.38709677,1.422580645,89.06451613,57.64516129,America/Fortaleza,-3
"Chongzhou,China",30.630122,103.673001,538.1410522,7.322580645,1023.224516,2.516129032,0,92.5483871,54.41935484,Asia/Shanghai,8
"Cotonou,Benin",6.3702928,2.3912362,3.688214064,27.70967742,1010.669032,22.48387097,0.064516129,96.4516129,44.32258065,Africa/Porto-Novo,1
"Yingcheng,China",30.92837,113.572707,31.60466766,3.870967742,1027.592258,0.096774194,0.858064516,96,54.67741935,Asia/Shanghai,8
"Zaragoza,Spain",41.6488226,-0.8890853,212.5020599,8.903225806,1020.514516,5.064516129,1.083870968,93.25806452,51.25806452,Europe/Madrid,1
"Changzhi,China",36.195409,113.116404,930.6149902,,,,,,,,
"Qujing,China",25.49,103.796167,1874.197754,8.677419355,,0.129032258,0.287096774,76.4516129,25.77419355,Asia/Shanghai,8
"Linghai,China",41.1734,121.35773,23.89064026,,,,,,,,
"Changge,China",34.194136,113.819888,88.04615021,0.483870968,1028.62129,-9.419354839,0.103225806,75.90322581,22.87096774,Asia/Shanghai,8
"Trujillo,Peru",-8.1090524,-79.0215336,43.52173233,22.74193548,1011.71,19.90322581,0,91.77419355,67.4516129,America/Lima,-5
"Tampico,Mexico",22.2331041,-97.861099,5.55520153,18.58064516,1018.875806,12.90322581,0.348387097,93.38709677,45.29032258,America/Mexico_City,-6
"Maoming,China",21.662999,110.925456,30.11929321,,,,0,,,Asia/Shanghai,8
"MorÌ_n,Argentina",-34.6558611,-58.6167212,27.54265785,24,1012,22,0,94,78,,
"LaPlata,Argentina",-34.9204948,-57.9535657,28.03355789,22.87096774,1013.129355,17,2.283870968,89.93548387,35.87096774,America/Buenos_Aires,-3
"CiudadGuayana,Venezuela",8.3663119,-62.6496813,40.67139435,,,,,,,,
"Moradabad,India",28.8386481,78.7733286,203.6760101,,,,0,,,,
"Jieshou,China",33.257013,115.374564,37.95055389,1.64516129,1029.147419,-3.032258065,0.474193548,86.70967742,49.03225806,Asia/Shanghai,8
"Sheffield,UnitedKingdom",53.381129,-1.470085,89.93291473,6,1005.658387,3.677419355,0,95.61290323,74.48387097,Europe/London,0
"Donggang,China",39.863008,124.152705,4.286838055,-7.741935484,1027.382258,-16.96774194,0.035483871,57.74193548,25.12903226,Asia/Shanghai,8
"Jingjiang,China",31.982751,120.277138,2.442693472,,,,,,,,
